business_id,name,address,city,state,postal_code,latitude,longitude,stars,review_count,categories,hours
0bPLkL0QhhPO5kt1_EXmNQ,Zio's Italian Market,2575 E Bay Dr,Largo,FL,33771,27.9161159,-82.7604608,4.5,100,"Food, Delis, Italian, Bakeries, Restaurants","{'Monday': '10:0-18:0', 'Tuesday': '10:0-20:0', 'Wednesday': '10:0-20:0', 'Thursday': '10:0-20:0', 'Friday': '10:0-20:0', 'Saturday': '10:0-20:0'}"
7Du9oW73YcYFmXdtU5aiSg,Kinjo's Japanese Restaurant,2875 Tyrone Blvd N,Saint Petersburg,FL,33710,27.7972626,-82.7339127,3.5,17,"Japanese, Sushi Bars, Restaurants","{'Monday': '12:0-22:0', 'Tuesday': '12:0-22:0', 'Wednesday': '12:0-22:0', 'Thursday': '12:0-22:0', 'Friday': '12:0-1:0', 'Saturday': '12:0-1:0', 'Sunday': '12:0-22:0'}"
XwoXi0M66RU6Gouq-DSDHw,G Peppers Grill & Tavern,8745 Gunn Hwy,Odessa,FL,33556,28.0921362,-82.5785736,4.0,82,"Restaurants, Mexican, American (Traditional)","{'Monday': '11:0-22:0', 'Tuesday': '11:0-22:0', 'Wednesday': '11:0-22:0', 'Thursday': '11:0-22:0', 'Friday': '11:0-23:0', 'Saturday': '11:0-23:0', 'Sunday': '10:30-21:0'}"
OfW-VK04qr7b7bPm5QbyLg,Taqueria Feliz,303 Horsham Rd,Horsham,FL,19044,40.1807271,-75.1346993,3.0,77,"Mexican, Pizza, Restaurants","{'Monday': '11:30-21:0', 'Tuesday': '11:30-21:0', 'Wednesday': '11:30-21:0', 'Thursday': '11:30-21:0', 'Friday': '11:30-22:0', 'Saturday': '16:0-22:0', 'Sunday': '16:0-20:30'}"
iBRXLFWD7PeSYDbKsd_JTw,Mai Thai Restaurant,875 E Bloomingdale Ave,Brandon,FL,33511,27.8915738378,-82.2725105,4.5,27,"Food, Ethnic Food, Specialty Food, Restaurants, Thai","{'Monday': '11:0-21:0', 'Tuesday': '11:0-21:0', 'Wednesday': '11:0-21:0', 'Thursday': '11:0-21:0', 'Friday': '11:0-22:0', 'Saturday': '11:0-22:0'}"
sUQ-OfJYSNfz-cimEjoaXQ,Soho Oasis Cafe,410 S Howard Ave,Tampa,FL,33606,27.9402059,-82.4828837,3.5,7,"Restaurants, Middle Eastern",Hours not specified
8JEOmVGQffkr6xtn4vvplQ,Pita Kebob,3028 E College Ave,Ruskin,FL,33570,27.713401,-82.394372,4.0,142,"Kebab, Mediterranean, Middle Eastern, Lebanese, Restaurants, Greek, Food","{'Monday': '0:0-0:0', 'Tuesday': '11:0-20:0', 'Wednesday': '11:0-20:0', 'Thursday': '11:0-20:0', 'Friday': '11:0-21:0', 'Saturday': '11:0-21:0'}"
rBE5TT_ndOOczNBrbRnJwA,Dio Modern Mediteranean,519 N Franklin St,Tampa,FL,33602,27.9491200666,-82.458398826,4.0,325,"Greek, Restaurants, Mediterranean","{'Monday': '11:0-0:0', 'Tuesday': '11:0-0:0', 'Wednesday': '11:0-0:0', 'Thursday': '11:0-0:0', 'Friday': '11:0-2:0', 'Saturday': '11:0-2:0', 'Sunday': '11:0-0:0'}"
v8IbZ6wcvdyGqWpbDKDvfA,YO! Sushi,"International Plz, 2223 N Westshore Blvd",Tampa,FL,33607,27.964536,-82.520756,4.0,121,"Sushi Bars, Fast Food, Japanese, Restaurants","{'Monday': '11:0-21:0', 'Tuesday': '11:0-21:0', 'Wednesday': '11:0-21:0', 'Thursday': '11:0-21:0', 'Friday': '11:0-21:0', 'Saturday': '11:0-21:0', 'Sunday': '11:0-18:0'}"
_uQEKHH0R5fxrYkLrUI9pQ,Gu Wei Noodles & Grill,"18101 Highwoods Preserve Pkwy, Ste 100",Tampa,FL,33647,28.1316091,-82.3691327,4.5,40,"Szechuan, Noodles, Restaurants, Chinese","{'Monday': '0:0-0:0', 'Wednesday': '17:0-21:0', 'Thursday': '17:0-21:0', 'Friday': '17:0-21:0', 'Saturday': '17:0-21:0', 'Sunday': '17:0-21:0'}"
I1h0GRYp86eX-XqwVXsSGA,Zeko's Mediterranean Grill,3609 E Busch Blvd,Tampa,FL,33612,28.0322261,-82.4189253,4.5,345,"Restaurants, Falafel, Fast Food, Mediterranean, Middle Eastern, Halal, Greek","{'Monday': '10:0-4:0', 'Tuesday': '10:0-4:0', 'Wednesday': '10:0-4:0', 'Thursday': '10:0-4:0', 'Friday': '10:0-4:0', 'Saturday': '10:0-4:0', 'Sunday': '10:0-4:0'}"
cpjv8YS2DMNIRK6C2MWmIg,RaceTrac,2854 Gulf To Bay Blvd,Clearwater,FL,33759,27.9610047,-82.7194345,3.5,8,"Automotive, Convenience Stores, Food, Gas Stations","{'Monday': '0:0-0:0', 'Tuesday': '0:0-0:0', 'Wednesday': '0:0-0:0', 'Thursday': '0:0-0:0', 'Friday': '0:0-0:0', 'Saturday': '0:0-0:0', 'Sunday': '0:0-0:0'}"
ewhGlOAo3GYriPFnLV004g,China Star,1762 22nd St S,Saint Petersburg,FL,33712,27.7524013,-82.6614647,3.0,6,"Chinese, Restaurants",Hours not specified
uxJRSGuOpTv4g7U7gWANyw,Pizza Hut,5020 E Bay Dr,Clearwater,FL,33764,27.9179833,-82.734651,3.0,9,"Chicken Wings, Fast Food, Restaurants, Italian, Pizza","{'Monday': '10:0-0:0', 'Tuesday': '10:0-0:0', 'Wednesday': '10:0-0:0', 'Thursday': '10:0-0:0', 'Friday': '10:0-1:0', 'Saturday': '10:0-1:0', 'Sunday': '10:0-0:0'}"
k3EQAQGptzHzl6oEoas61w,Ithai & Sushi Restaurant,11002 Seminole Blvd,Largo,FL,33778,27.8730288,-82.7875025,4.0,63,"Restaurants, Thai, Sushi Bars","{'Monday': '16:30-21:30', 'Tuesday': '16:30-21:30', 'Wednesday': '16:30-21:30', 'Thursday': '16:30-21:30', 'Friday': '16:30-22:0', 'Saturday': '16:30-22:0', 'Sunday': '16:30-21:30'}"
_O16xyQwp0YSTG2RgweRYA,Luigi's Italian Restaurant,"3224 W Gandy Blvd, Ste 3",Tampa,FL,33611,27.893361,-82.49954,3.5,37,"Italian, Hair Salons, Pizza, Restaurants, Beauty & Spas","{'Monday': '17:0-22:0', 'Tuesday': '17:0-22:0', 'Wednesday': '11:0-0:0', 'Thursday': '11:0-0:0', 'Friday': '11:0-0:0', 'Saturday': '16:0-23:0', 'Sunday': '17:0-22:0'}"
6O6W8hHIMs-xJWT6yfh5qw,Suzi's Restaurant,1555 E Bay Dr,Largo,FL,33771,27.916168,-82.772327,4.5,35,"Breakfast & Brunch, Diners, American (New), Restaurants, Greek","{'Tuesday': '6:0-14:0', 'Wednesday': '6:0-14:0', 'Thursday': '6:0-14:0', 'Friday': '6:0-14:0', 'Saturday': '6:0-14:0', 'Sunday': '6:0-14:0'}"
e9J0IWHyYGU-AcCqTQ7lSA,Kaisen Sushi,14841 N Dale Mabry Hwy,Tampa,FL,33618,28.083075,-82.504375,4.0,69,"Restaurants, Sushi Bars, Japanese","{'Tuesday': '17:0-22:0', 'Wednesday': '17:0-22:0', 'Thursday': '17:0-22:0', 'Friday': '17:0-22:0', 'Saturday': '17:0-22:0'}"
Yh_KhyVD6ZBwsIQQ1wSUpw,Pho An Hoa Restaurant,2730 W Waters Ave,Tampa,FL,33614,28.0250188,-82.4881568,4.0,160,"Vietnamese, Restaurants","{'Monday': '9:0-21:0', 'Tuesday': '9:0-21:0', 'Thursday': '9:0-21:0', 'Friday': '9:0-22:0', 'Saturday': '9:0-22:0', 'Sunday': '9:0-21:0'}"
peL7F35gY6nXuXDD-08LAA,Asian Kitchen,30611 US Hwy 19 N,Palm Harbor,FL,34684,28.0512845,-82.7362063,4.0,51,"Restaurants, Chinese, Asian Fusion","{'Monday': '11:0-22:0', 'Tuesday': '11:0-22:0', 'Wednesday': '11:0-22:0', 'Thursday': '11:0-22:0', 'Friday': '11:0-22:0', 'Saturday': '11:0-22:0', 'Sunday': '16:0-22:0'}"
OFOCckxzypHnh35Xj5FQ4g,Sunoco,403 S MacDill Ave,Tampa,FL,33609,27.940735,-82.4937399,3.0,8,"Gas Stations, Automotive",Hours not specified
M4pf66QgBEu45FF_ivqk7g,Pacific Counter,660 Central Ave,Saint Petersburg,FL,33701,27.770927,-82.642797,4.5,410,"Sushi Bars, Poke, Restaurants, Hawaiian, Asian Fusion, Food","{'Monday': '11:0-21:0', 'Tuesday': '11:0-21:0', 'Wednesday': '11:0-21:0', 'Thursday': '11:0-21:0', 'Friday': '11:0-15:0', 'Saturday': '11:0-21:0', 'Sunday': '11:0-21:0'}"
rpnuLtrfmYJuQUOVILCdBw,Grand Hacienda,11955 Sheldon Rd,Tampa,FL,33626,28.0573657458,-82.5821880689,3.5,37,"Mexican, Restaurants","{'Monday': '10:30-21:0', 'Tuesday': '10:30-21:0', 'Wednesday': '10:30-21:0', 'Thursday': '10:30-21:0', 'Friday': '10:0-22:0', 'Saturday': '10:0-22:0', 'Sunday': '10:30-21:0'}"
QlI4_BHwxb5UplGwd4vE0w,Fiesta Taqueria,"1479 Belcher Rd, Ste B",Largo,FL,33771,27.9035372,-82.7457031,4.5,123,"Mexican, Restaurants","{'Monday': '0:0-0:0', 'Tuesday': '9:0-20:0', 'Wednesday': '9:0-20:0', 'Thursday': '9:0-21:0', 'Friday': '9:0-21:0', 'Saturday': '9:0-21:0', 'Sunday': '9:0-20:30'}"
2KIDQyTh-HzLxOUEDqtDBg,Mazzaro's Italian Market,2909 22nd Ave N,Saint Petersburg,FL,33713,27.7922562,-82.673539,4.5,1551,"Specialty Food, Delis, Coffee Roasteries, Butcher, Meat Shops, Food, Restaurants, Grocery, Italian","{'Monday': '9:0-17:0', 'Tuesday': '9:0-17:0', 'Wednesday': '9:0-17:0', 'Thursday': '9:0-17:0', 'Friday': '9:0-17:0', 'Saturday': '9:0-14:30'}"
XV-jiJ6yb0LXlh4EyEWbqQ,Joey's New York Pizza and Italian Restaurant,30681 US Hwy 19,Palm Harbor,FL,34684,28.0511853,-82.7370533,3.5,183,"Italian, Pizza, Restaurants","{'Tuesday': '11:0-21:0', 'Wednesday': '11:0-21:0', 'Thursday': '11:0-21:0', 'Friday': '11:0-22:0', 'Saturday': '11:0-22:0', 'Sunday': '14:0-21:0'}"
ZmrebvKKDIOKNCQaNo_8xg,The Hungry Greek,10041 N Dale Mabry Hwy,Tampa,FL,33618,28.042587,-82.504005,3.5,69,"Chicken Shop, Restaurants, Greek, Mediterranean","{'Monday': '11:0-21:0', 'Tuesday': '11:0-21:0', 'Wednesday': '11:0-21:0', 'Thursday': '11:0-21:0', 'Friday': '11:0-21:0', 'Saturday': '11:0-21:0', 'Sunday': '11:0-20:0'}"
zIUUlBoQOQqQLoi2ElcWAg,Suegra Tequila Cantina,4022 Tampa Rd,Oldsmar,FL,34677,28.0352664484,-82.6549851894,3.5,132,"Restaurants, Mexican, New Mexican Cuisine","{'Monday': '15:0-22:0', 'Tuesday': '15:0-22:0', 'Wednesday': '15:0-22:0', 'Thursday': '15:0-22:0', 'Friday': '15:0-23:0', 'Saturday': '15:0-23:0', 'Sunday': '17:0-21:0'}"
GApqfwJMxg4t2tk3K2PpMw,Zoes Kitchen,15028 N Dale Mabry Hwy,Tampa,FL,33618,28.0870493,-82.5048328,4.5,94,"Kebab, Mediterranean, Greek, Restaurants, Sandwiches","{'Monday': '11:0-21:0', 'Tuesday': '11:0-21:0', 'Wednesday': '11:0-21:0', 'Thursday': '11:0-21:0', 'Friday': '11:0-21:0', 'Saturday': '11:0-21:0', 'Sunday': '11:0-21:0'}"
tUhPRgJ7mBx-1fGef7Nv3w,TJ's Italian Cafe,1515 Gulf Blvd,Indian Rocks Beach,FL,33785,27.8984072785,-82.8479462971,3.5,166,"Italian, Restaurants, Seafood, Pizza","{'Monday': '15:0-22:0', 'Tuesday': '15:0-22:0', 'Wednesday': '15:0-22:0', 'Thursday': '15:0-22:0', 'Friday': '12:0-22:0', 'Saturday': '12:0-22:0', 'Sunday': '12:0-22:0'}"
WUZsRFKkL2YKdCp_SHNzqQ,Makkah Mart and Pastries,10740 N 56th St,Temple Terrace,FL,33617,28.0449451365,-82.3941105232,4.5,6,"Restaurants, Specialty Food, Bakeries, Turkish, Food, Grocery, Middle Eastern","{'Monday': '10:0-22:30', 'Tuesday': '10:0-22:30', 'Wednesday': '10:0-22:30', 'Thursday': '10:0-22:30', 'Friday': '10:0-23:0', 'Saturday': '10:0-23:0', 'Sunday': '10:0-22:30'}"
vTNm04guTgOT5hCmGSN5HA,Wawa,804 E Bearss Ave,Tampa,FL,33613,28.0885325138,-82.4522646769,4.0,23,"Food, Gas Stations, Sandwiches, Automotive, Restaurants, Convenience Stores, Coffee & Tea","{'Monday': '0:0-0:0', 'Tuesday': '0:0-0:0', 'Wednesday': '0:0-0:0', 'Thursday': '0:0-0:0', 'Friday': '0:0-0:0', 'Saturday': '0:0-0:0', 'Sunday': '0:0-0:0'}"
9svAtGS29ILNTN0eYdi3UQ,Untouchables Pasta & Pizza,1150 Clearwater Largo Rd N,Largo,FL,33770,27.9273775,-82.7956508,3.5,124,"Pizza, Restaurants, Italian","{'Wednesday': '11:0-21:0', 'Thursday': '11:0-21:0', 'Friday': '11:0-21:0', 'Saturday': '11:0-21:0', 'Sunday': '16:0-21:0'}"
ZiQiMlvgk19GrEEkN9kyRA,The Blind Tiger Cafe - Ybor City,1901 E 7th Ave,Tampa,FL,33605,27.9601407,-82.4378181,4.5,331,"Shopping, Vegan, Vegetarian, Beer, Wine & Spirits, Sandwiches, Food, Bagels, Bakeries, Coffee & Tea, Men's Clothing, American (Traditional), Restaurants, Women's Clothing, Breakfast & Brunch, Acai Bowls, Fashion, Cafes","{'Monday': '0:0-0:0', 'Tuesday': '7:30-20:0', 'Wednesday': '7:30-20:0', 'Thursday': '7:30-20:0', 'Friday': '9:0-22:0', 'Saturday': '8:0-20:0', 'Sunday': '8:0-20:0'}"
wA7v8fiuWZ4qOW12HAVcGg,Grand China,6168 Gunn Hwy,Tampa,FL,33625,28.0635922,-82.5511343,3.5,19,"Restaurants, Chinese","{'Monday': '11:0-22:0', 'Tuesday': '11:0-22:0', 'Wednesday': '11:0-22:0', 'Thursday': '11:0-22:0', 'Friday': '11:0-23:0', 'Saturday': '11:0-23:0', 'Sunday': '12:0-22:0'}"
bMIVLkX6-0U2NVPaVwt94A,Poblanos Mexican Grill & Bar,2451 N McMullen Booth Rd,Clearwater,FL,33759,28.0104334843,-82.7098818788,3.0,189,"Ethnic Food, Specialty Food, Food, Mexican, Restaurants","{'Monday': '11:0-23:0', 'Tuesday': '11:0-22:0', 'Wednesday': '11:0-22:0', 'Thursday': '11:0-22:0', 'Friday': '11:0-22:0', 'Saturday': '11:0-22:0', 'Sunday': '11:0-21:0'}"
vGupL5VfwBfkU5U0XylElQ,Taqueria Olmeca,1201 E College Ave,Ruskin,FL,33570,27.7124983663,-82.4183175589,4.5,32,"Mexican, Restaurants, Food, Food Trucks","{'Monday': '16:30-20:0', 'Tuesday': '16:30-20:0', 'Wednesday': '16:30-20:0', 'Thursday': '16:30-20:0', 'Friday': '16:30-21:0', 'Saturday': '10:0-21:0', 'Sunday': '10:0-21:0'}"
iCUYFHzotxgpi3PxopT5zQ,Limon Loco Fresh Mexican Grill,5838 54th Ave N,Saint Petersburg,FL,33709,27.8210044,-82.7131549,1.5,12,"New Mexican Cuisine, Tex-Mex, Food Delivery Services, Specialty Food, Pizza, Food, Mexican, Fast Food, Restaurants","{'Monday': '0:0-0:0', 'Tuesday': '10:0-0:0', 'Wednesday': '10:0-0:0', 'Thursday': '10:0-0:0', 'Friday': '10:0-0:0', 'Saturday': '10:0-0:0'}"
g__reLE-nkT2HrRDE0R55A,Ruby Cafe,3308 W Kennedy Blvd,Tampa,FL,33609,27.944479,-82.497818,3.5,5,"Cafes, Restaurants, Persian/Iranian","{'Monday': '11:0-21:0', 'Tuesday': '11:0-21:0', 'Wednesday': '11:0-21:0', 'Thursday': '11:0-21:0', 'Friday': '11:0-22:0', 'Saturday': '11:0-22:0'}"
sZv9RBbLG5PBO3AJB33HUg,Bollywood Cafe & Grill,6616 S Mcdill Ave,Tampa,FL,33611,27.87179,-82.493742,4.5,5,"Food, Restaurants, Halal, Indian","{'Monday': '6:0-21:0', 'Tuesday': '6:0-21:0', 'Wednesday': '6:0-21:0', 'Thursday': '6:0-21:0', 'Friday': '6:0-21:0', 'Saturday': '6:0-21:0', 'Sunday': '6:0-21:0'}"
poTRFH1mfLElY4pV5pad4g,Aunt Chilada's Cantina,34718 US Hwy 19 N,Palm Harbor,FL,34684,28.0886597,-82.7395962,2.0,5,"Mexican, Restaurants",Hours not specified
kZc2yP2UGdB8XqTuf5yNDg,Cafe Modern Plus Thai&Sushi,18431 US-41,Lutz,FL,33549,28.1405398249,-82.461099332,4.5,9,"Thai, Restaurants, Sushi Bars","{'Monday': '0:0-0:0', 'Tuesday': '10:0-20:0', 'Wednesday': '10:0-20:0', 'Thursday': '10:0-20:0', 'Friday': '10:0-20:0', 'Saturday': '11:0-20:0'}"
6CkM4X2aKULL30r8KUZZEQ,Moe's Southwest Grill,1011 E Brandon Blvd,Brandon,FL,33511,27.9368647414,-82.267029,1.5,27,"Tex-Mex, Restaurants, Mexican","{'Monday': '10:30-21:0', 'Tuesday': '10:30-21:0', 'Wednesday': '10:30-21:0', 'Thursday': '10:30-21:0', 'Friday': '10:30-21:0', 'Saturday': '10:30-21:0', 'Sunday': '10:30-20:0'}"
3UK4mtRYfn0efzFKbDEtCA,Hungry Howie's Pizza & Subs,620 Alt 19 N,Palm Harbor,FL,34683,28.073927,-82.766749,3.5,10,"Pizza, Restaurants, Italian, Chicken Wings, Sandwiches","{'Monday': '10:0-23:0', 'Tuesday': '10:0-23:0', 'Wednesday': '10:0-23:0', 'Thursday': '10:0-23:0', 'Friday': '10:0-0:0', 'Saturday': '10:0-0:0', 'Sunday': '10:0-23:0'}"
zzIF9qp2UoHN48EeZH_IDg,Domino's Pizza,40188 US Hwy 19 N,Tarpon Springs,FL,34689,28.137368,-82.740846,3.0,19,"Italian, Restaurants, Pizza, Chicken Wings, Sandwiches","{'Monday': '10:30-1:0', 'Tuesday': '10:30-1:0', 'Wednesday': '10:30-1:0', 'Thursday': '10:30-1:0', 'Friday': '10:30-2:0', 'Saturday': '10:30-2:0', 'Sunday': '10:30-1:0'}"
d9vapPUlJCSSrltRRKO9ig,Sushi Avenue,2826 E Bearss Ave,Tampa,FL,33613,28.0814183,-82.4275746,4.0,150,"Korean, Japanese, Asian Fusion, Sushi Bars, Restaurants","{'Monday': '0:0-0:0', 'Tuesday': '17:0-22:0', 'Wednesday': '17:0-22:0', 'Thursday': '17:0-22:0', 'Friday': '17:0-22:30', 'Saturday': '17:0-22:30', 'Sunday': '16:0-21:0'}"
v5ktgWMAARaczTMh2rAJKg,San Jose Mexican Restaurant,"16540 Pointe Village Dr, Ste 112",Lutz,FL,33558,28.1893346665,-82.5410481178,3.0,155,"Restaurants, Mexican, Salad","{'Monday': '11:0-21:30', 'Tuesday': '11:0-21:30', 'Wednesday': '11:0-21:30', 'Thursday': '11:0-21:30', 'Friday': '11:0-22:0', 'Saturday': '11:0-22:0', 'Sunday': '12:0-21:0'}"
CSRbFLgUDO1cvr3OlRMLHA,Pokeworks,"2223 N Westshore Blvd, Ste 230B",Tampa,FL,33607,27.9646718,-82.5206425,4.0,72,"Food, Poke, Hawaiian, Sushi Bars, Salad, Restaurants","{'Monday': '0:0-0:0', 'Tuesday': '11:0-20:0', 'Wednesday': '11:0-20:0', 'Thursday': '11:0-20:0', 'Friday': '11:0-18:0', 'Saturday': '11:0-21:0', 'Sunday': '11:0-18:0'}"
j7c9WjWoYK_JpitKoRhE-A,Bello,903 N Franklin St,Tampa,FL,33602,27.9518076,-82.4595044,3.5,33,"Italian, Restaurants, Sandwiches, Breakfast & Brunch","{'Wednesday': '17:0-23:0', 'Thursday': '17:0-23:0', 'Friday': '17:0-1:0', 'Saturday': '11:0-1:0', 'Sunday': '11:0-23:0'}"
jYMxtQhB1YP0dfhr9P96ng,El Tipico Criollo,4721 Normandy Dr,Tampa,FL,33615,27.9873566489,-82.5709779877,4.0,62,"Restaurants, Latin American, Dominican, Caribbean, Delis","{'Monday': '6:30-20:30', 'Tuesday': '6:30-20:30', 'Wednesday': '6:30-20:30', 'Thursday': '6:30-20:30', 'Friday': '6:30-20:30', 'Saturday': '6:30-20:30', 'Sunday': '8:0-18:0'}"
RQ2UTXJHtY8UWDBNLYVMCw,Karma Juice Bar And Eatery,201 Main St,Safety Harbor,FL,34695,27.9909625359,-82.6893534259,4.5,10,"Juice Bars & Smoothies, Food, Acai Bowls, Salad, Sandwiches, Vegetarian, Restaurants","{'Monday': '0:0-0:0', 'Tuesday': '8:0-17:0', 'Wednesday': '8:0-17:0', 'Thursday': '8:0-17:0', 'Friday': '8:0-17:0', 'Saturday': '8:0-17:0', 'Sunday': '8:0-17:0'}"
_GfWx9wdaLadRaQV9MASig,OGGI - St Petersburg,10316 Roosevelt Blvd N,Saint Petersburg,FL,33716,27.8659055825,-82.6427573338,4.0,21,"Italian, Restaurants","{'Monday': '16:0-22:0', 'Tuesday': '16:0-22:0', 'Wednesday': '16:0-22:0', 'Thursday': '16:0-22:0', 'Friday': '16:0-22:0', 'Saturday': '16:0-22:0'}"
Ul-Il9YPreYhsZtUYzFnaA,Shell Gas Station at Suncoast Crossings,16138 State Road 54,Odessa,FL,33556,28.1870513555,-82.548239302,2.0,24,"Automotive, Gas Stations",Hours not specified
i5toijAsL6ivxzVqCc9OEg,Shell Gas Station,2198 Main St,Clearwater,FL,33759,28.0198450547,-82.7472778949,2.5,6,"Automotive, Gas Stations","{'Monday': '0:0-0:0', 'Tuesday': '0:0-0:0', 'Wednesday': '0:0-0:0', 'Thursday': '0:0-0:0', 'Friday': '0:0-0:0', 'Saturday': '0:0-0:0', 'Sunday': '0:0-0:0'}"
jwRlmoAC0ItrVN5E7hOqzg,Chipotle Mexican Grill,1418 66th St N,Saint Petersburg,FL,33710,27.7856821,-82.728935,2.5,65,"Mexican, Fast Food, Restaurants","{'Monday': '0:0-0:0', 'Tuesday': '10:45-22:0', 'Wednesday': '10:45-22:0', 'Thursday': '10:45-22:0', 'Friday': '10:45-22:0', 'Saturday': '10:45-22:0', 'Sunday': '10:45-22:0'}"
hbu99aFDn_iYKDSZNQOr3A,J's Pizza Effect,33135 US Hwy 19 N,Palm Harbor,FL,34684,28.0731892,-82.7372698,3.5,16,"Cheesesteaks, Pizza, Italian, Salad, Chicken Wings, Restaurants","{'Monday': '11:0-21:0', 'Tuesday': '11:0-21:0', 'Wednesday': '11:0-21:0', 'Thursday': '11:0-21:0', 'Friday': '11:0-22:0', 'Saturday': '11:0-22:0'}"
6Z89Ixagyc0mrVnyZHiIVw,Catch Twenty Three,10103 Montague St,Tampa,FL,33626,28.0433568,-82.5970998,4.0,407,"Restaurants, Latin American, Caribbean, Sushi Bars, Seafood","{'Monday': '0:0-0:0', 'Tuesday': '16:30-21:30', 'Wednesday': '16:30-21:30', 'Thursday': '16:30-21:30', 'Friday': '16:30-22:30', 'Saturday': '10:30-22:30', 'Sunday': '10:30-21:30'}"
ScWo1fsKbn6vJftI49bqcw,Coffee Evi,4020 W Kennedy Blvd,Tampa,FL,33609,27.9445434,-82.5107071,4.5,72,"Food, Breakfast & Brunch, Restaurants, Gluten-Free, Coffee & Tea, Bakeries, Bagels","{'Monday': '9:0-17:0', 'Tuesday': '9:0-17:0', 'Wednesday': '9:0-17:0', 'Thursday': '9:0-17:0', 'Friday': '9:0-17:0', 'Saturday': '10:0-14:0'}"
wbwDE3g8j4w-TGy_E6dMSw,Cazador Grill,10918 N 56th St,Temple Terrace,FL,33617,28.0481089,-82.3942414,4.5,259,"Restaurants, Steakhouses, Peruvian, Seafood","{'Monday': '16:0-21:0', 'Tuesday': '16:0-21:0', 'Wednesday': '16:0-21:0', 'Thursday': '16:0-21:0', 'Friday': '16:0-22:0', 'Saturday': '13:0-22:0', 'Sunday': '13:0-20:0'}"
CSlJBdoIGHhVg_JAc5aZwA,Starkey Pizza,12512 Starkey Rd,Largo,FL,33773,27.8860589,-82.7630514,4.0,38,"Sandwiches, Restaurants, Pizza, Italian","{'Monday': '11:0-22:0', 'Tuesday': '11:0-22:0', 'Wednesday': '11:0-22:0', 'Thursday': '11:0-22:0', 'Friday': '11:0-22:0', 'Saturday': '12:0-22:0'}"
U1VdxazyPMrmf6sCZFKL2A,Thai Basil II,1700 W Bay Dr,Largo,FL,33770,27.9170858,-82.8064506,4.0,85,"Restaurants, Thai, Sushi Bars","{'Monday': '16:0-21:30', 'Tuesday': '16:0-21:30', 'Wednesday': '16:0-21:30', 'Thursday': '16:0-21:30', 'Friday': '16:0-21:30', 'Saturday': '16:0-21:30'}"
FYpfaVtAzEeSVB1-fU4L9Q,La Lechonera,5601 N Armenia Ave,Tampa,FL,33603,27.9978114,-82.4842267,4.0,133,"Caribbean, Puerto Rican, Restaurants, Latin American","{'Monday': '0:0-0:0', 'Tuesday': '9:0-18:0', 'Wednesday': '10:0-21:0', 'Thursday': '10:0-21:0', 'Friday': '10:0-22:0', 'Saturday': '10:0-22:0', 'Sunday': '10:0-21:0'}"
h0tUOsL3sRYVqSQlxWjW5g,Minerva Indian Restaurant,19050 Bruce B Downs Blvd,Tampa,FL,33647,28.1460177958,-82.354815,4.0,289,"Bars, Beer Bar, Nightlife, Restaurants, Indian, Pakistani, Buffets, Halal, Southern","{'Monday': '17:0-22:0', 'Tuesday': '17:0-22:0', 'Wednesday': '17:0-22:0', 'Thursday': '17:0-22:0', 'Friday': '10:0-22:0', 'Saturday': '17:0-22:0', 'Sunday': '17:0-22:0'}"
igC3UWYb9RF5CXOQOVypMw,Besa Grill,2542 N McMullen Booth Rd,Clearwater,FL,33761,28.0138060632,-82.7098607124,3.5,144,"Restaurants, American (New), Latin American, Mexican","{'Monday': '11:30-21:0', 'Tuesday': '11:30-22:0', 'Wednesday': '11:30-22:0', 'Thursday': '11:30-22:0', 'Friday': '11:30-23:0', 'Saturday': '11:30-23:0', 'Sunday': '10:0-21:0'}"
SzSLKafTPOQzp3pfzPjEVg,Ichiban Japanese Cuisine & Sushi Bar,"2786 E Fowler Ave, Ste A",Tampa,FL,33612,28.0555039,-82.4273789,3.5,196,"Japanese, Gluten-Free, Restaurants, Asian Fusion, Sushi Bars","{'Monday': '0:0-0:0', 'Tuesday': '12:0-21:0', 'Wednesday': '12:0-21:0', 'Thursday': '12:0-21:0', 'Friday': '12:0-21:0', 'Saturday': '16:0-21:0', 'Sunday': '16:0-21:0'}"
C_csOMzSkq3Ufau_rKmTmg,Luv Child,516 South Howard Ave,Tampa,FL,33606,27.9387699,-82.4827424,4.5,316,"Cafes, Coffee & Tea, Food, Latin American, Mexican, Burgers, Nightlife, Bars, Cuban, Cocktail Bars, Restaurants","{'Monday': '0:0-0:0', 'Tuesday': '11:0-22:0', 'Wednesday': '11:0-22:0', 'Thursday': '11:0-0:0', 'Friday': '15:0-22:0', 'Saturday': '11:0-1:0', 'Sunday': '11:0-22:0'}"
t132qqcNfr_3ZASDxhdn_Q,Taco Bell,3550 Ulmerton Rd,Clearwater,FL,33762,27.8931180534,-82.6816124631,2.5,22,"Tex-Mex, Tacos, Mexican, Food, Restaurants, Breakfast & Brunch, Fast Food","{'Monday': '7:0-1:0', 'Tuesday': '7:0-1:0', 'Wednesday': '7:0-1:0', 'Thursday': '7:0-1:0', 'Friday': '8:0-2:0', 'Saturday': '8:0-2:0', 'Sunday': '7:0-1:0'}"
PzvTiZtyVm74RYc5FFq0Nw,Wawa,1510 Easton Rd,Horsham,FL,19044,40.209947,-75.138831,3.5,13,"Convenience Stores, Restaurants, Food, Gas Stations, Sandwiches, Automotive, Coffee & Tea","{'Monday': '0:0-0:0', 'Tuesday': '0:0-0:0', 'Wednesday': '0:0-0:0', 'Thursday': '0:0-0:0', 'Friday': '0:0-0:0', 'Saturday': '0:0-0:0', 'Sunday': '0:0-0:0'}"
Y3xeBrwZ0BABw-AQr3TR0g,Oggi Italian,4301 El Prado Blvd,Tampa,FL,33629,27.911865,-82.516594,4.5,12,"Italian, Restaurants","{'Monday': '17:0-22:0', 'Tuesday': '17:0-22:0', 'Wednesday': '17:0-22:0', 'Thursday': '17:0-22:0', 'Friday': '17:0-22:0', 'Saturday': '11:0-22:0', 'Sunday': '11:0-22:0'}"
Rh4dx2yxmE1YKvZ--u780w,Campanellas Bar&Grill,3580 Ulmerton Rd,Clearwater,FL,33762,27.8930971,-82.6825238,3.0,26,"Steakhouses, Italian, Food, Restaurants, Food Delivery Services","{'Monday': '11:0-22:0', 'Tuesday': '11:0-22:0', 'Wednesday': '11:0-22:0', 'Thursday': '11:0-22:0', 'Friday': '11:0-23:0', 'Saturday': '8:0-23:0', 'Sunday': '8:0-22:0'}"
wHXO4ISnBgs2-XYx0sU2Hw,Antonio's Pasta Grill,2755 Ulmerton Rd,Clearwater,FL,33762,27.8944109,-82.6710453,4.0,40,"Italian, Restaurants","{'Monday': '11:0-22:0', 'Tuesday': '11:0-22:0', 'Wednesday': '11:0-22:0', 'Thursday': '11:0-22:0', 'Friday': '11:0-22:0', 'Saturday': '17:0-22:0', 'Sunday': '16:0-22:0'}"
BsXj1um0axFqzLdJVr9wVg,El Toro Loco,2301 N Dale Mabry Hwy,Tampa,FL,33607,27.9618230719,-82.505075857,3.5,5,"Bars, Mexican, Nightlife, Restaurants",Hours not specified
6LAp-gSP9Kk4ZvxijXaxIw,Sushi Cafe,18015 Highwoods Preserve Pkwy,Tampa,FL,33647,28.1311220902,-82.3657837315,4.5,291,"Sushi Bars, Japanese, Restaurants","{'Monday': '11:0-22:0', 'Tuesday': '11:0-22:0', 'Wednesday': '11:0-22:0', 'Thursday': '11:0-22:0', 'Friday': '11:0-23:0', 'Saturday': '11:0-23:0', 'Sunday': '11:0-22:0'}"
yGTr-8aFWA1FDXiO1l86yA,China Express,"1250 Seminole Blvd, Ste 5",Largo,FL,33770,27.904455,-82.7877551,1.5,6,"Restaurants, Chinese","{'Monday': '11:0-22:30', 'Tuesday': '11:0-22:30', 'Wednesday': '11:0-22:30', 'Thursday': '11:0-22:30', 'Friday': '11:0-23:0', 'Saturday': '11:0-23:0', 'Sunday': '12:0-22:0'}"
6_Gsn1ZxSosWb6mZusap0Q,Sweet Soul,1101 S Howard Ave,Tampa,FL,33606,27.9325705,-82.483258,4.5,198,"Restaurants, Ice Cream & Frozen Yogurt, Acai Bowls, Vegan, Food, Juice Bars & Smoothies","{'Monday': '0:0-0:0', 'Tuesday': '8:30-21:0', 'Wednesday': '8:30-21:0', 'Thursday': '8:30-21:0', 'Friday': '8:30-16:0', 'Saturday': '8:30-21:0', 'Sunday': '8:30-21:0'}"
2oh4NJDtqTUO5ZuvCe0hWw,EVOS Feel Great Food-South Tampa,609 S Howard Ave,Tampa,FL,33606,27.9383165,-82.4831865,3.5,134,"Food, Organic Stores, Burgers, Restaurants, Vegetarian, Fast Food, American (Traditional), Salad","{'Monday': '0:0-0:0', 'Tuesday': '11:0-21:0', 'Wednesday': '11:0-21:0', 'Thursday': '11:0-21:0', 'Friday': '11:0-20:0', 'Saturday': '12:0-21:0'}"
vOXoM9W8-CpHbZUiGbL3dw,Pho Queen,29000 US Highway 19 N,Clearwater,FL,33761,28.035875,-82.739051,3.5,224,"Restaurants, Vietnamese","{'Tuesday': '10:0-21:0', 'Wednesday': '10:0-21:0', 'Thursday': '10:0-21:0', 'Friday': '10:0-21:0', 'Saturday': '10:0-21:0', 'Sunday': '10:0-21:0'}"
jfBoUNpNa-Kf-xyuozDEFw,Dine Or Dash,19040 Bruce B Downs Blvd,Tampa,FL,33647,28.1367305,-82.3593447,2.5,12,"Italian, Restaurants, Cuban","{'Monday': '7:0-16:0', 'Tuesday': '7:0-16:0', 'Wednesday': '7:0-16:0', 'Thursday': '7:0-16:0', 'Friday': '7:0-16:0', 'Saturday': '7:0-16:0', 'Sunday': '8:0-16:0'}"
tmYa9OC8NE4ov2BoLyL2WQ,Thai Island,210 E Davis Blvd,Tampa,FL,33606,27.9271071,-82.4539606,4.0,155,"Restaurants, Thai","{'Tuesday': '12:0-21:0', 'Wednesday': '12:0-21:0', 'Thursday': '12:0-21:0', 'Friday': '12:0-21:0', 'Saturday': '17:0-21:0', 'Sunday': '17:0-21:0'}"
sQWOLxrjQ_6MPUcmL5ylaA,Queen's Pizza & Restaurant,1834 N Belcher Rd,Clearwater,FL,33765,27.987779,-82.747163,3.5,82,"Pizza, Restaurants, Food Delivery Services, Italian, Diners, Greek, Food","{'Monday': '11:0-21:0', 'Tuesday': '11:0-21:0', 'Wednesday': '11:0-21:0', 'Thursday': '11:0-21:0', 'Friday': '11:0-21:0', 'Saturday': '11:0-21:0'}"
9EoNx6yHsmiCe43XscJzDA,Fresh Kitchen,4616 W Kennedy Blvd,Tampa,FL,33609,27.944543799999998,-82.5228421,4.5,241,"Vegetarian, Restaurants, American (New), Gluten-Free","{'Monday': '0:0-0:0', 'Tuesday': '11:0-21:30', 'Wednesday': '11:0-21:30', 'Thursday': '11:0-21:30', 'Friday': '11:0-16:0', 'Saturday': '11:0-21:30', 'Sunday': '11:0-16:0'}"
uobhWxt-JUU4Axk7erUZbQ,China Buffet,11926 Seminole Blvd,Largo,FL,33778,27.881487,-82.7880849502,3.5,49,"Chinese, Restaurants","{'Monday': '11:0-21:0', 'Wednesday': '11:0-21:0', 'Thursday': '11:0-21:0', 'Friday': '11:0-21:0', 'Saturday': '11:0-21:0', 'Sunday': '11:0-21:0'}"
lJjS6vLnf0Rqtx_gicq24g,China Yuan Restaurant,"8502 N Armenia Ave, Ste 1A",Tampa,FL,33604,28.0275678,-82.4852451,4.0,312,"Barbeque, Restaurants, Seafood, Chinese, Dim Sum","{'Monday': '11:0-22:0', 'Tuesday': '11:0-22:0', 'Wednesday': '11:0-22:0', 'Thursday': '11:0-22:0', 'Friday': '10:30-23:0', 'Saturday': '10:30-23:0', 'Sunday': '10:30-22:0'}"
Zv6mbtBXAitZrwO-zTgRyw,The Laughing Cat,1811 N 15th St,Tampa,FL,33605,27.9608557,-82.4427811,4.0,132,"Restaurants, Italian, Beer, Wine & Spirits, Food","{'Monday': '16:0-21:0', 'Tuesday': '16:0-21:0', 'Wednesday': '16:0-21:0', 'Thursday': '16:0-21:0', 'Friday': '16:0-23:0', 'Saturday': '16:0-23:0', 'Sunday': '16:0-21:0'}"
szGhcaEt0n417qIlQCzcYQ,Pizza Hut,"2519 Mcmullen Booth Rd, Ste 501",Clearwater,FL,33761,28.0125847667,-82.7076364907,2.0,13,"Restaurants, Pizza, Italian, Fast Food, Chicken Wings","{'Monday': '10:0-22:0', 'Tuesday': '10:0-22:0', 'Wednesday': '10:0-22:0', 'Thursday': '10:0-22:0', 'Friday': '10:0-23:0', 'Saturday': '10:0-23:0', 'Sunday': '10:0-23:0'}"
PUXP5TUvKsx0T_XWhEpAKw,Katerina's Taverna And Grill,619 Pinellas Ave,Tarpon Springs,FL,34689,28.1525471,-82.7569382,4.5,53,"Greek, Restaurants","{'Tuesday': '11:0-22:0', 'Wednesday': '11:0-22:0', 'Thursday': '11:0-22:0', 'Friday': '11:0-22:0', 'Saturday': '11:0-22:0', 'Sunday': '11:0-21:0'}"
mhXwuwa0gUXe_F4w1NMF4w,Sally O' Neal's Pizza Hotline,1319 S Howard Ave,Tampa,FL,33606,27.9289873,-82.4835461,4.0,225,"Food, Restaurants, Desserts, Salad, Gluten-Free, Pizza, Italian","{'Monday': '0:0-0:0', 'Wednesday': '11:0-21:0', 'Thursday': '11:0-21:0', 'Friday': '11:0-22:0', 'Saturday': '11:0-22:0', 'Sunday': '11:0-21:0'}"
pOPggEGV0gy8U0v-lHByRA,Pho Quyen,2740 E Fowler Ave,Tampa,FL,33612,28.0560479,-82.4292735,3.5,238,"Restaurants, Vietnamese","{'Tuesday': '10:30-22:0', 'Wednesday': '10:30-22:0', 'Thursday': '10:30-22:0', 'Friday': '10:30-22:0', 'Saturday': '10:30-22:0', 'Sunday': '11:0-22:0'}"
ff0fdH-WKmY7WQgLtLkmKw,Sushi Maru,"2020 W Brandon Blvd, Ste 160",Brandon,FL,33511,27.938602544,-82.3178653902,4.5,435,"Restaurants, Sushi Bars","{'Monday': '11:0-22:0', 'Tuesday': '11:0-22:0', 'Wednesday': '11:0-22:0', 'Thursday': '11:0-22:0', 'Friday': '11:0-23:0', 'Saturday': '12:0-23:0', 'Sunday': '12:0-21:30'}"
apkyjkqnTF9hIpExAHutug,Big Joe's Pasta House,509 Alt 19,Palm Harbor,FL,34683,28.0720743767,-82.7677831426,3.5,26,"Bars, Nightlife, Pizza, Restaurants, Italian","{'Monday': '11:0-21:0', 'Tuesday': '11:0-21:0', 'Wednesday': '11:0-21:0', 'Thursday': '11:0-21:0', 'Friday': '11:0-22:0', 'Saturday': '11:0-22:0', 'Sunday': '11:0-21:0'}"
kpF8q97-b2MDjmnJl74A1Q,Sa Ri One Kitchen,11842 Bruce B Downs Blvd,Tampa,FL,33612,28.0566179,-82.4268442,4.5,17,"Restaurants, Korean",Hours not specified
Q-AI1ETjU1pjG3BEwB9X1w,Salsa's Mexican Restaurant,35114 US Hwy 19 N,Palm Harbor,FL,34683,28.0917897,-82.7396633,3.5,27,"Restaurants, Mexican","{'Monday': '11:0-22:0', 'Tuesday': '11:0-22:0', 'Wednesday': '11:0-22:0', 'Thursday': '11:0-22:0', 'Friday': '11:0-23:0', 'Saturday': '11:0-23:0', 'Sunday': '11:0-21:0'}"
8G82J5UvcQ-Lj-GH6g_0GQ,Egg Style,3980 Tampa Rd,Oldsmar,FL,34677,28.036298,-82.657912,3.0,50,"Restaurants, Mediterranean, Greek, Breakfast & Brunch","{'Monday': '7:0-15:0', 'Tuesday': '7:0-15:0', 'Wednesday': '7:0-15:0', 'Thursday': '7:0-15:0', 'Friday': '7:0-15:0', 'Saturday': '7:0-15:0', 'Sunday': '7:0-15:0'}"
LMXaKchY61sXCr17RBSjdA,Speedway,1625 N Mcmullen Booth Rd,Clearwater,FL,33759,27.9821444,-82.7082665,3.5,6,"Gas Stations, Automotive, Coffee & Tea, Convenience Stores, Food","{'Monday': '0:0-0:0', 'Tuesday': '0:0-0:0', 'Wednesday': '0:0-0:0', 'Thursday': '0:0-0:0', 'Friday': '0:0-0:0', 'Saturday': '0:0-0:0', 'Sunday': '0:0-0:0'}"
vLpAUDjttjjBs3vMXvC8oA,Taco Bell,13709 Walsingham Rd,Largo,FL,33774,27.880723,-82.828557,1.5,27,"Restaurants, Mexican, Fast Food, Tex-Mex, Tacos, Breakfast & Brunch","{'Monday': '7:0-2:0', 'Tuesday': '7:0-2:0', 'Wednesday': '7:0-2:0', 'Thursday': '7:0-2:0', 'Friday': '7:0-2:0', 'Saturday': '7:0-2:0', 'Sunday': '7:0-2:0'}"
8-zp6Ni8z3o-ISj3zwZ1Zw,Taco Bell,904 Bloomingdale Rd,Brandon,FL,33511,27.89316,-82.27133,2.0,20,"Restaurants, Mexican, Tacos, Fast Food, Breakfast & Brunch, Tex-Mex","{'Monday': '8:0-1:0', 'Tuesday': '8:0-1:0', 'Wednesday': '8:0-1:0', 'Thursday': '8:0-1:0', 'Friday': '8:0-2:0', 'Saturday': '8:0-2:0', 'Sunday': '8:0-1:0'}"
G8H-8KnMFjS4bHtTBX9t7A,Hibachi Buffet,13151 N Dale Mabry Hwy,Tampa,FL,33618,28.066161,-82.501268,2.0,140,"Seafood, Buffets, Restaurants, Chinese, Japanese","{'Monday': '11:0-21:30', 'Tuesday': '11:0-21:30', 'Wednesday': '11:0-21:30', 'Thursday': '11:0-21:30', 'Friday': '11:0-22:30', 'Saturday': '11:0-22:30', 'Sunday': '11:0-21:30'}"
XKevywsd9Br4YDcd7IC2-w,Alfano's Restaurant,1702 Clearwater Largo Rd,Clearwater,FL,33756,27.93455,-82.7961561,4.0,80,"Italian, Restaurants","{'Monday': '0:0-0:0', 'Tuesday': '16:0-21:0', 'Wednesday': '16:0-21:0', 'Thursday': '16:0-21:0', 'Friday': '16:0-22:0', 'Saturday': '16:0-22:0'}"
v-vwrHWtSRJw84n9m_IAVQ,The Koshery Restaurant,931 S Howard Ave,Tampa,FL,33606,27.9340377118,-82.4831743816,4.5,13,"Middle Eastern, Kosher, Falafel, Mediterranean, Restaurants",Hours not specified
6n1m1XaSqZcGsBUige13rA,Rice Market and Restaurant,7525 W Hillsborough Ave,Tampa,FL,33615,27.9980032604,-82.5636772197,3.0,94,"Restaurants, Nightlife, Korean, Ethnic Food, Grocery, Ethnic Grocery, Lounges, Specialty Food, Food, Bars, Sushi Bars","{'Monday': '9:0-21:0', 'Tuesday': '9:0-21:0', 'Wednesday': '9:0-21:0', 'Thursday': '9:0-21:0', 'Friday': '9:0-21:0', 'Saturday': '9:0-21:0', 'Sunday': '9:0-21:0'}"
JOU22FJLIZNsYRymOMnfkg,Poke Express,"1514 E Fowler Ave, Ste B",Tampa,FL,33612,28.055217,-82.4419113,4.5,107,"Sushi Bars, Food, Japanese, Poke, Restaurants","{'Tuesday': '11:0-21:30', 'Wednesday': '11:0-21:30', 'Thursday': '11:0-21:30', 'Friday': '11:0-21:30', 'Saturday': '11:0-21:30', 'Sunday': '12:0-21:0'}"
F12pqHJ4wQhFygMrDeFnlA,El Rey De Oros,2002 E Fletcher Ave,Tampa,FL,33612,28.0695611,-82.436089,4.0,18,"Mexican, Restaurants","{'Monday': '10:0-21:0', 'Tuesday': '10:0-21:0', 'Wednesday': '10:0-21:0', 'Thursday': '10:0-21:0', 'Friday': '10:0-21:0', 'Saturday': '10:0-19:0', 'Sunday': '10:0-19:0'}"
6Uu74gvylXUYRYllKUDKNw,Fish Bowl,2882 US-19 Alt,Palm Harbor,FL,34683,28.0950843,-82.7715392,5.0,50,"Food, Sushi Bars, Juice Bars & Smoothies, Restaurants, Asian Fusion, Poke, Acai Bowls, Bubble Tea","{'Monday': '9:0-21:0', 'Tuesday': '9:0-21:0', 'Wednesday': '9:0-21:0', 'Thursday': '9:0-21:0', 'Friday': '9:0-21:0', 'Saturday': '9:0-21:0', 'Sunday': '9:0-21:0'}"
mjqsJ6qZjnY77hCi41Xudg,Grain and Berry - New Tampa,8638 Hunters Village Rd,Tampa,FL,33647,28.139999803,-82.3575468852,4.5,34,"Restaurants, Acai Bowls, Juice Bars & Smoothies, Food, Vegan","{'Monday': '0:0-0:0', 'Tuesday': '9:0-21:0', 'Wednesday': '9:0-21:0', 'Thursday': '9:0-21:0', 'Friday': '9:0-16:0', 'Saturday': '9:0-21:0', 'Sunday': '9:0-21:0'}"
sCbv0Dq62IXCMOCK8si3Xg,Two Cousins Pizzeria,9277 Seminole Blvd,Seminole,FL,33772,27.8571294509,-82.7866521478,4.0,37,"Restaurants, Comfort Food, Salad, Italian, Pizza","{'Monday': '16:0-21:0', 'Tuesday': '16:0-21:0', 'Wednesday': '16:0-21:0', 'Thursday': '16:0-21:0', 'Friday': '16:0-21:0', 'Saturday': '16:0-21:0', 'Sunday': '16:0-21:0'}"
C7ANpBbkQq4ZICSbZiiHlw,Tokyo Sushi Cafe,10500 Ulmerton Rd,Largo,FL,33771,27.8929345,-82.7848052,3.0,11,"Restaurants, Sushi Bars",Hours not specified
lcKgQdQU1D38ahpFDE1hUg,Panos Kouzina,3101 SR 580,Safety Harbor,FL,34695,28.023277,-82.708319,4.0,15,"Greek, Restaurants, Mediterranean","{'Tuesday': '11:0-21:0', 'Wednesday': '11:0-21:0', 'Thursday': '11:0-21:0', 'Friday': '11:0-22:0', 'Saturday': '11:0-22:0', 'Sunday': '12:0-20:0'}"
Ly9qy0PV5R32tWJrFCFxeA,Jonny Primo's,33180 US Hwy 19,Palm Harbor,FL,34683,28.073680799999998,-82.7391088,2.0,5,"Italian, Restaurants",Hours not specified
EmSd4cSZgJs7D2AXsHIxBQ,Little Greek Restaurant,"1155 S Dale Mabry Hwy, Ste 3",Tampa,FL,33629,27.9326118133,-82.5061440468,4.0,118,"Greek, Restaurants","{'Monday': '11:0-21:0', 'Tuesday': '11:0-21:0', 'Wednesday': '11:0-21:0', 'Thursday': '11:0-21:0', 'Friday': '11:0-21:0', 'Saturday': '11:0-21:0', 'Sunday': '11:0-21:0'}"
speLDZmGk5tMenzLb0DHSg,Bellissimo Italian Eatery,"13220 S Belcher Rd, Ste 20",Largo,FL,33773,27.8931018,-82.7466404,4.0,162,"Nightlife, Italian, Restaurants, Bars, Seafood","{'Tuesday': '11:0-21:0', 'Wednesday': '11:0-21:0', 'Thursday': '11:0-21:0', 'Friday': '11:0-22:0', 'Saturday': '11:0-22:0', 'Sunday': '11:0-21:0'}"
LRTU8SUyCXRhQrqRlJCr6A,Los Mariachis Mexican Restaurant,9100 Ulmerton Rd,Largo,FL,33771,27.8939983,-82.765424,3.0,104,"Restaurants, Mexican, Tex-Mex","{'Monday': '11:0-21:30', 'Tuesday': '11:0-21:30', 'Wednesday': '11:0-21:30', 'Thursday': '11:0-21:30', 'Friday': '11:0-22:0', 'Saturday': '12:0-22:0', 'Sunday': '12:0-21:0'}"
FFV8_b-ec5Z0E3xgvkVxKw,Matteo Trattoria & Pizzeria,2402 S MacDill Ave,Tampa,FL,33629,27.9236708,-82.4932535,4.5,73,"Restaurants, Italian","{'Monday': '16:30-21:0', 'Tuesday': '16:30-21:0', 'Wednesday': '16:30-21:0', 'Thursday': '16:30-21:0', 'Friday': '16:30-22:0', 'Saturday': '16:30-22:0', 'Sunday': '16:30-21:0'}"
EDSqeUjhDwB8VMnIng-Q-A,Pizza Hut,"902 W Busch Blvd, Ste 110",Tampa,FL,33612,28.032999,-82.468687,1.5,19,"Italian, Pizza, Restaurants, Chicken Wings, Fast Food","{'Monday': '10:0-23:0', 'Tuesday': '10:0-23:0', 'Wednesday': '10:0-23:0', 'Thursday': '10:0-23:0', 'Friday': '10:0-0:0', 'Saturday': '10:0-0:0', 'Sunday': '10:0-23:0'}"
lTJjJQHOXxos5qIbSjWTEA,Garden Gyros,3025 E Busch Blvd,Tampa,FL,33612,28.0322705,-82.4251246,4.0,41,"Greek, Fast Food, Seafood, American (New), Restaurants","{'Monday': '10:0-2:0', 'Tuesday': '10:0-2:0', 'Wednesday': '10:0-2:0', 'Thursday': '10:0-2:0', 'Friday': '10:0-3:0', 'Saturday': '10:0-3:0', 'Sunday': '10:0-2:0'}"
ojtc-D4nM13yL_95QK2P6Q,La Taqueria El Nopal,8305 NDale Mabry Hwy,Tampa,FL,33614,28.0246357629,-82.5046387419,4.5,32,"Tacos, Food, Restaurants, Mexican, Food Stands, Food Trucks","{'Tuesday': '11:0-21:0', 'Wednesday': '11:0-21:0', 'Thursday': '11:0-21:0', 'Friday': '11:0-22:0', 'Saturday': '11:0-22:0', 'Sunday': '11:0-21:0'}"
v1F-Sgp_b8Vjbfhlp0Obrg,Baum Ave Market,1113 Central Ave,Saint Petersburg,FL,33705,27.7713,-82.650569,4.5,22,"Sandwiches, Acai Bowls, Nightlife, Restaurants, Mediterranean, Food Court, Vegetarian, Food, Bars, Juice Bars & Smoothies","{'Tuesday': '10:0-19:0', 'Wednesday': '10:0-19:0', 'Thursday': '10:0-22:0', 'Friday': '10:0-22:0', 'Saturday': '10:0-22:0', 'Sunday': '10:0-19:0'}"
n4k8btUo4A6OX1gnO8Sj6Q,Boston Grill,11701 N Florida Ave,Tampa,FL,33612,28.0548817,-82.4591056,4.0,13,"Italian, Restaurants, American (Traditional)","{'Monday': '7:0-16:0', 'Tuesday': '7:0-16:0', 'Wednesday': '7:0-16:0', 'Thursday': '7:0-16:0', 'Friday': '7:0-16:0', 'Saturday': '7:0-16:0'}"
xEvV6_CSA9pJAVK0i9UDWg,Forbici Modern Italian,1633 W Snow Ave,Tampa,FL,33606,27.935777,-82.4766718,4.0,342,"Bars, Pizza, Restaurants, Italian, Nightlife","{'Monday': '0:0-0:0', 'Tuesday': '11:30-22:0', 'Wednesday': '11:30-22:0', 'Thursday': '11:30-23:0', 'Friday': '11:30-0:0', 'Saturday': '11:0-0:0', 'Sunday': '11:0-22:0'}"
x5-R7vcgqzy2VNzJatqOMQ,Thai Ginger,6821 Hillsborough Ave W,Tampa,FL,33634,27.997106,-82.556019,4.0,6,"Thai, Restaurants",Hours not specified
w4wYlGd-ADrda22Z7zO0Nw,Mekenita Cantina,6707 N Florida Ave,Tampa,FL,33604,28.0084547162,-82.4591510743,4.0,276,"Food, Restaurants, Mexican","{'Monday': '0:0-0:0', 'Tuesday': '11:0-21:0', 'Wednesday': '11:0-21:0', 'Thursday': '11:0-21:0', 'Friday': '11:0-22:0', 'Saturday': '11:0-22:0'}"
m61MRBD5w9udzeJQIWe7oQ,SOHO Juice Company,3120 W Bay To Bay Blvd,Tampa,FL,33629,27.9195496,-82.4950812,4.5,18,"Acai Bowls, Juice Bars & Smoothies, Food, Vegan, Restaurants","{'Monday': '7:0-19:0', 'Tuesday': '7:0-19:0', 'Wednesday': '7:0-19:0', 'Thursday': '7:0-19:0', 'Friday': '7:0-19:0', 'Saturday': '8:0-19:0', 'Sunday': '8:0-19:0'}"
I5jxUHS1Dp2rg40eDzyiCA,Rasoi Indian Cuisine,1701 E 8th Ave,Tampa,FL,33605,27.96077,-82.44027,4.5,218,"Indian, Restaurants","{'Monday': '17:0-22:0', 'Tuesday': '17:0-22:0', 'Wednesday': '17:0-22:0', 'Thursday': '17:0-22:0', 'Friday': '17:0-22:30', 'Saturday': '17:0-22:30', 'Sunday': '17:0-22:0'}"
k8C4zFZDl8GcjIapHCB77w,Cali Viejo Catering,436 E Brandon Blvd,Brandon,FL,33511,27.9379629,-82.2800334,4.0,176,"Bakeries, Restaurants, Food, Mexican, Latin American","{'Monday': '7:0-21:0', 'Tuesday': '7:0-21:0', 'Wednesday': '7:0-21:0', 'Thursday': '7:0-21:0', 'Friday': '7:0-22:0', 'Saturday': '7:0-23:0', 'Sunday': '9:0-21:0'}"
1BZcRoLmJ55rDM5rgt4nLA,La Mansion de La Arepa,10011 W Hillsborough Ave,Tampa,FL,33615,28.0036983855,-82.5962006629,4.5,40,"Latin American, Restaurants, Venezuelan",Hours not specified
0W6KJNqUDHw9hPhv79WcOA,Ice Spice Cafe,"20304 Trout Creek Dr, Ste 101",Tampa,FL,33647,28.1634002704,-82.354301177,5.0,31,"Restaurants, Food, Indian, Desserts, Juice Bars & Smoothies, Ice Cream & Frozen Yogurt","{'Tuesday': '11:0-21:0', 'Wednesday': '11:0-21:0', 'Thursday': '11:0-21:0', 'Friday': '11:0-22:0', 'Saturday': '11:0-22:0', 'Sunday': '12:0-21:0'}"
QH4h7s7PsSM9wsDTqOoM7Q,Eataly Pizza & Grill,138-A S Dale Mabry Hwy,Tampa,FL,33609,27.9433652,-82.505413,2.5,21,"American (Traditional), Pizza, Restaurants, Italian, American (New)","{'Monday': '11:0-23:0', 'Tuesday': '11:0-23:0', 'Wednesday': '11:0-23:0', 'Thursday': '11:0-23:0', 'Friday': '11:0-0:0', 'Saturday': '11:0-0:0'}"
a8CrdVtlfa3JDoC_ADW8dA,Se√±or Tequila Mexican Restaurant - Tampa,11115 N Dale Mabry Hwy,Tampa,FL,33618,28.050129822,-82.5031507015,4.0,280,"Bars, Mexican, Seafood, Restaurants, Nightlife","{'Monday': '11:0-22:0', 'Tuesday': '11:0-22:0', 'Wednesday': '11:0-22:0', 'Thursday': '11:0-22:0', 'Friday': '11:0-23:0', 'Saturday': '11:0-23:0', 'Sunday': '11:0-21:0'}"
_27_xPY4rCw1JEvz3VolCQ,Singha Thai Viet Restaurant,8787 N 56th Street Temple Ter,Tampa,FL,33617,28.0284727,-82.3921999,3.5,104,"Thai, Vietnamese, Diners, Restaurants","{'Monday': '0:0-0:0', 'Tuesday': '17:0-20:0', 'Wednesday': '17:0-20:0', 'Thursday': '17:0-20:0', 'Friday': '11:0-20:0', 'Saturday': '17:0-20:0', 'Sunday': '12:0-20:0'}"
uYMVRPYEqpmVXWN2xOs5KQ,Cooper's Hawk Winery & Restaurants - Tampa,4110 W Boy Scout Blvd,Tampa,FL,33607,27.9654184,-82.512508,4.0,1154,"Event Planning & Services, American (Traditional), Nightlife, Restaurants, Bars, Wineries, American (New), Wine Tasting Room, Gluten-Free, Arts & Entertainment, Party & Event Planning, Wine Bars, Food, Seafood","{'Monday': '11:0-21:0', 'Tuesday': '11:0-21:0', 'Wednesday': '11:0-21:0', 'Thursday': '11:0-21:0', 'Friday': '11:0-21:0', 'Saturday': '11:0-21:0', 'Sunday': '11:0-21:0'}"
vx8d8r0tpVKnVNNKSdb_iQ,Chica's Taco Bar,2542 N McMullen Booth Rd,Clearwater,FL,33761,28.0141879553,-82.7090542316,3.5,91,"Tacos, Restaurants, Southern, Mexican","{'Monday': '0:0-0:0', 'Tuesday': '11:0-21:0', 'Wednesday': '11:0-21:0', 'Thursday': '11:0-21:0', 'Friday': '11:0-22:0', 'Saturday': '11:0-22:0', 'Sunday': '11:0-19:30'}"
Tm1-GfbxXnpw6cPO_Vh7jQ,Xilo Mexican,1701 N Franklin St,Tampa,FL,33602,27.9597371,-82.459973,4.0,12,"Restaurants, Breakfast & Brunch, Coffee & Tea, Food, Mexican","{'Monday': '0:0-0:0', 'Tuesday': '7:30-0:30', 'Wednesday': '9:0-16:30', 'Thursday': '14:0-19:0', 'Saturday': '14:0-19:0'}"
cwQ0bsmDmI23ZWktA3uIxA,Casa De Don Juan,1110 N Hwy 41,Ruskin,FL,33570,27.72863827,-82.4340818854,3.5,15,"Mexican, Restaurants",Hours not specified
HkJetnEgmvTdjjUZVYoLJw,Pita's Republic,14614 N Dale Mabry Hwy,Tampa,FL,33618,28.0812207,-82.5076523,4.0,26,"Greek, Restaurants, Sandwiches","{'Monday': '11:0-21:0', 'Tuesday': '11:0-21:0', 'Wednesday': '11:0-21:0', 'Thursday': '11:0-21:0', 'Friday': '11:0-21:0', 'Saturday': '11:0-19:0', 'Sunday': '12:0-17:0'}"
MqFYLVFTCPseygf593p2Uw,Song Huong Restaurant,4034 W Waters Ave,Tampa,FL,33614,28.0250647,-82.5113873,4.0,98,"Restaurants, Vietnamese","{'Wednesday': '10:0-20:30', 'Thursday': '10:0-20:30', 'Friday': '10:0-20:30', 'Saturday': '10:0-20:30', 'Sunday': '10:0-20:30'}"
TFZLHW_OuP0LWomBiP3w_g,China City Restaurant,3049 Commercial Way,Spring Hill,FL,34606,28.476123514,-82.6156350004,4.0,28,"Restaurants, Chinese, Noodles, Dim Sum",Hours not specified
00sOoojttpdZljH8VgOU0A,Wawa,7408 E Hillsborough Ave,Tampa,FL,33610,27.9963217,-82.3726623,3.5,17,"Food, Gas Stations, Convenience Stores, Coffee & Tea, Sandwiches, Automotive, Restaurants","{'Monday': '0:0-0:0', 'Tuesday': '0:0-0:0', 'Wednesday': '0:0-0:0', 'Thursday': '0:0-0:0', 'Friday': '0:0-0:0', 'Saturday': '0:0-0:0', 'Sunday': '0:0-0:0'}"
27jGuI1lizX-L39LTQAuzw,Paula's Gluten-Free,,Tampa,FL,33601,27.8864761838,-82.2545029165,5.0,20,"Custom Cakes, Food, Cupcakes, Desserts, Bakeries, Restaurants, Gluten-Free",Hours not specified
SKbMFiv_wgLTs045aCnmgw,LoBosco's Pizza in Palm Harbor,31808 US Hwy 19 N,Palm Harbor,FL,34689,28.0606946,-82.7390192,3.5,8,"Pizza, Home Services, Food, Marketing, Food Delivery Services, Restaurants, Italian, Graphic Design, Professional Services, Advertising, Heating & Air Conditioning/HVAC","{'Monday': '11:0-21:0', 'Tuesday': '11:0-21:0', 'Wednesday': '11:0-21:0', 'Thursday': '11:0-21:0', 'Friday': '11:0-22:0', 'Saturday': '15:0-22:0', 'Sunday': '12:0-17:0'}"
CZrIWLwTuk_Dq2kjdWNJSA,McLeod's Auto Service,2905 S Manhattan Ave,Tampa,FL,33629,27.920172,-82.5180317,4.5,15,"Automotive, Oil Change Stations, Tires, Gas Stations, Auto Repair, Auto Parts & Supplies","{'Monday': '8:0-17:0', 'Tuesday': '8:0-17:0', 'Wednesday': '8:0-17:0', 'Thursday': '8:0-17:0', 'Friday': '8:0-17:0'}"
_FIBtjR9tNNcwfpsEtFABg,Babbaluci Ristorante Italiano & Lounge,3671 S W Shore Blvd,Tampa,FL,33629,27.909735,-82.527011,4.0,37,"Italian, Restaurants, Bars, Wine Bars, Nightlife, Lounges","{'Monday': '17:0-22:0', 'Tuesday': '17:0-22:0', 'Wednesday': '17:0-22:0', 'Thursday': '17:0-22:0', 'Friday': '17:0-22:0', 'Saturday': '17:0-22:0', 'Sunday': '17:0-22:0'}"
qnaFtY-FmoSP1ebrPdhM7Q,Rico's Acai,5216 S MacDill Ave,Tampa,FL,33611,27.8887732,-82.4936976,3.5,86,"Food, Health Markets, Vegetarian, Breakfast & Brunch, Specialty Food, Acai Bowls, Food Trucks, Restaurants","{'Monday': '0:0-0:0', 'Tuesday': '8:0-20:0', 'Wednesday': '8:0-20:0', 'Thursday': '8:0-20:0', 'Friday': '8:0-20:0', 'Saturday': '10:0-21:0', 'Sunday': '10:0-21:0'}"
Lq1fNQQBMwG4NWRS3UcrFw,China 1,14926 N Dale Mabry Hwy,Tampa,FL,33618,28.085528,-82.50622,3.0,31,"Restaurants, Chinese","{'Monday': '11:0-22:0', 'Tuesday': '11:0-22:0', 'Wednesday': '11:0-22:0', 'Thursday': '11:0-22:0', 'Friday': '11:0-23:0', 'Saturday': '11:0-23:0', 'Sunday': '12:0-22:0'}"
dQUZyX2QDWuqi_-y-cEjMw,Marker 39 Floribbean Cuisine,155 5th Ave N,Safety Harbor,FL,34695,27.9914358767,-82.692395209,4.5,207,"Caribbean, American (New), Asian Fusion, Restaurants, Latin American","{'Wednesday': '17:0-21:30', 'Thursday': '17:0-21:30', 'Friday': '17:0-22:0', 'Saturday': '17:0-22:0', 'Sunday': '11:0-14:30'}"
HNMN7NhEvA64Z0FDEA2Twg,Liang's Bistro Asian Cuisine,17515 Bruce B Downs Blvd,Tampa,FL,33647,28.127516,-82.367689,4.0,268,"Restaurants, Desserts, Food, Pan Asian, Asian Fusion, Cantonese, Thai, Chinese","{'Monday': '11:0-22:0', 'Tuesday': '11:0-22:0', 'Wednesday': '11:0-22:0', 'Thursday': '11:0-22:0', 'Friday': '11:0-22:0', 'Saturday': '11:0-22:0', 'Sunday': '11:0-22:0'}"
govpAIeO0KO4FCeIfl5MSw,El Texano,35903 US Hwy 19 N,Palm Harbor,FL,34683,28.0988387466,-82.7391817658,3.0,60,"Mexican, Restaurants","{'Monday': '9:0-21:0', 'Tuesday': '9:0-21:0', 'Wednesday': '9:0-21:0', 'Thursday': '9:0-21:0', 'Friday': '9:0-21:0', 'Saturday': '9:0-21:0', 'Sunday': '9:0-21:0'}"
Y_aUDKJkUW9GFQLUL-Zmww,Bayou Bistro,607 Island Dr,Tarpon Springs,FL,34689,28.1552377887,-82.7644898125,4.5,54,"Vegetarian, Seafood, Breakfast & Brunch, Restaurants","{'Tuesday': '11:0-21:0', 'Wednesday': '11:0-21:0', 'Thursday': '11:0-21:0', 'Friday': '11:0-22:0', 'Saturday': '9:0-22:0', 'Sunday': '9:0-20:0'}"
BXPhwXch2RPXOSA0HIsldw,Discovery Indian Cuisine,38593 US Hwy 19 N,Palm Harbor,FL,34684,28.1226205,-82.7394554,4.5,73,"Indian, Restaurants","{'Monday': '11:30-22:0', 'Wednesday': '16:30-22:0', 'Thursday': '11:30-22:0', 'Friday': '11:30-22:0', 'Saturday': '11:30-22:0', 'Sunday': '11:30-22:0'}"
F3dimcQ49-KpMWNuZCKwqA,Pizza Hut,2421 4th St N,Saint Petersburg,FL,33704,27.7945834,-82.6383807,2.0,12,"Pizza, Chicken Wings, Restaurants, Italian, Fast Food","{'Monday': '10:0-23:0', 'Tuesday': '10:0-23:0', 'Wednesday': '10:0-23:0', 'Thursday': '10:0-23:0', 'Friday': '10:0-0:0', 'Saturday': '10:0-0:0', 'Sunday': '10:0-23:0'}"
sARE4pLe59vgmrBgJls1rQ,"Tacos, Tequila, and Rum","490 Mandalay Ave, Ste 10, 11, 12",Clearwater,FL,33767,27.9815936451,-82.8273254942,4.0,46,"Mexican, New Mexican Cuisine, Restaurants, Seafood, Bars, Nightlife","{'Monday': '8:30-21:0', 'Tuesday': '8:30-21:0', 'Wednesday': '8:30-21:0', 'Thursday': '8:30-21:0', 'Friday': '8:30-22:0', 'Saturday': '8:30-22:0', 'Sunday': '8:30-21:30'}"
i-KD2ru_CLkCCufOFWR5Mg,Positano's,3309 Tampa Rd,Palm Harbor,FL,34684,28.0682874,-82.7239618,4.0,215,"Italian, Restaurants","{'Tuesday': '16:0-19:30', 'Wednesday': '16:0-19:30', 'Thursday': '16:0-19:30', 'Friday': '16:0-20:30', 'Saturday': '16:0-20:30', 'Sunday': '16:0-19:30'}"
bqJSblRnV1Qf689lxIFBiw,Ding Tea Tampa,2202 W Waters Ave,Tampa,FL,33604,28.0249493879,-82.4816715717,4.5,65,"Vietnamese, Juice Bars & Smoothies, Food, Bubble Tea, Coffee & Tea, Restaurants","{'Monday': '10:0-21:0', 'Tuesday': '10:0-21:0', 'Wednesday': '10:0-21:0', 'Thursday': '10:0-21:0', 'Friday': '10:0-21:0', 'Saturday': '10:0-21:0', 'Sunday': '10:0-21:0'}"
xlSeiJBufNcROWYJnQllzw,Thorntons,1698 Gulf To Bay Blvd,Clearwater,FL,33755,27.961246,-82.767365,4.0,27,"Automotive, Gas Stations","{'Monday': '0:0-0:0', 'Tuesday': '0:0-0:0', 'Wednesday': '0:0-0:0', 'Thursday': '0:0-0:0', 'Friday': '0:0-0:0', 'Saturday': '0:0-0:0', 'Sunday': '0:0-0:0'}"
aDatT6ZyfzHtTBIk-33ntg,K-Chicken & Bowl,14380 N Dale Mabry Hwy,Tampa,FL,33618,28.0785132207,-82.5079718,4.0,33,"Korean, Asian Fusion, Restaurants, Chicken Wings","{'Monday': '0:0-0:0', 'Tuesday': '16:30-22:0', 'Wednesday': '16:30-22:0', 'Thursday': '16:30-22:0', 'Friday': '12:0-22:0', 'Saturday': '12:0-22:0', 'Sunday': '12:0-22:0'}"
Lm6VyDb-DPfSiUYb8S4_TA,Little Greek Restaurant,19022 Bruce B Downs Blvd,Tampa,FL,33647,28.1445589708,-82.3546334163,4.0,77,"Food, Restaurants, Vegetarian, Greek","{'Monday': '11:0-21:0', 'Tuesday': '11:0-21:0', 'Wednesday': '11:0-21:0', 'Thursday': '11:0-21:0', 'Friday': '11:0-21:0', 'Saturday': '11:0-21:0', 'Sunday': '11:0-21:0'}"
wVggi3Mh_oNMXxRGFUn0Dg,Mythos Greek Taverna,"13575 58th St N, Ste 111",Clearwater,FL,33760,27.9044695894,-82.7224331323,4.0,34,"Greek, Mediterranean, Restaurants","{'Monday': '11:0-22:0', 'Tuesday': '11:0-22:0', 'Wednesday': '11:0-22:0', 'Thursday': '11:0-22:0', 'Friday': '11:0-23:0', 'Saturday': '17:0-23:0'}"
P18TWSZvw1z0ByLxiCRD2g,Apna Bazar,1730 E Fowler Ave,Tampa,FL,33612,28.0556718,-82.4402187,3.0,18,"Food, International Grocery, Restaurants, Grocery, Indian","{'Monday': '9:0-21:0', 'Tuesday': '9:0-21:0', 'Wednesday': '9:0-21:0', 'Thursday': '9:0-21:0', 'Friday': '9:0-21:0', 'Saturday': '9:0-21:0', 'Sunday': '9:0-21:0'}"
6gCQvovXf3wmrfwuTyeLlQ,Taco Bus,2324 Central Ave,Saint Petersburg,FL,33711,27.7707678,-82.6649738,3.0,399,"Food Trucks, Restaurants, Street Vendors, Food, Mexican","{'Monday': '11:0-22:0', 'Tuesday': '11:0-22:0', 'Wednesday': '11:0-22:0', 'Thursday': '11:0-22:0', 'Friday': '11:0-2:0', 'Saturday': '11:0-2:0', 'Sunday': '11:0-22:0'}"
D_qCYxSUz6XJag_UzFe5wA,Hibachi Express Tarpon Springs,41260 US Hwy 19 N,Tarpon Springs,FL,34689,28.1479314,-82.7405743,4.5,5,"Sushi Bars, Restaurants, Japanese",Hours not specified
HhDmtHGXwJH20te7nhjINQ,Pita's Republic,34720 US Hwy 19,Palm Harbor,FL,34683,28.0880857,-82.7403129,4.5,38,"Restaurants, Sandwiches, Event Planning & Services, Mediterranean, Caterers, Food, Middle Eastern","{'Monday': '11:0-21:0', 'Tuesday': '11:0-21:0', 'Wednesday': '11:0-21:0', 'Thursday': '11:0-21:0', 'Friday': '11:0-21:0', 'Saturday': '11:0-19:0'}"
QBbK9CuhCUG9NpHmypmoyA,Acropol Family Restaurant,1170 Starkey Rd,Largo,FL,33771,27.9058877,-82.7629882,4.0,91,"Restaurants, Greek, Diners, Breakfast & Brunch","{'Monday': '6:0-21:0', 'Tuesday': '6:0-21:0', 'Wednesday': '6:0-21:0', 'Thursday': '6:0-21:0', 'Friday': '6:0-21:0', 'Saturday': '6:0-21:0', 'Sunday': '6:0-21:0'}"
ax2WiMOPkm2ooALuH-_BZQ,Plaka Restaurant,769 Dodecanese Blvd,Tarpon Springs,FL,34689,28.1554374,-82.7615673,3.5,38,"Sandwiches, Restaurants, Greek","{'Monday': '10:0-20:0', 'Tuesday': '10:0-20:0', 'Wednesday': '10:0-20:0', 'Thursday': '10:0-20:0', 'Friday': '10:0-21:0', 'Saturday': '10:0-21:0', 'Sunday': '10:0-20:0'}"
yzi0wgFNodzH_6xNJ_PUzA,Savory Restaurant,12881 Walsingham Rd,Largo,FL,33774,27.880768,-82.8171435,4.0,124,"Greek, Breakfast & Brunch, American (New), Restaurants, Italian, Pizza","{'Tuesday': '8:0-20:0', 'Wednesday': '8:0-20:0', 'Thursday': '8:0-20:0', 'Friday': '8:0-20:0', 'Saturday': '8:0-20:0', 'Sunday': '8:0-15:0'}"
t24_JnNptChMXityiA6mgQ,Forest Hills Brick Oven Pizza,905 W Linebaugh Ave,Tampa,FL,33612,28.0401835,-82.468059,4.0,18,"Restaurants, Pizza, Chicken Wings, Italian, Salad","{'Monday': '11:0-21:0', 'Tuesday': '11:0-21:0', 'Wednesday': '11:0-21:0', 'Thursday': '11:0-21:0', 'Friday': '11:0-22:0', 'Saturday': '11:0-22:0', 'Sunday': '11:0-20:0'}"
aFhYm3GjDrqydA8zg_Y2XQ,Granadino's Italian Restaurant,1840 Drew St,Clearwater,FL,33765,27.9683523,-82.7611783,4.0,66,"Italian, Pizza, Seafood, Restaurants","{'Monday': '11:0-0:0', 'Tuesday': '11:0-0:0', 'Wednesday': '11:0-0:0', 'Thursday': '11:0-0:0', 'Friday': '11:0-0:0', 'Saturday': '11:0-0:0', 'Sunday': '11:0-0:0'}"
S9qwmdAgz9YYQ6XCvX3aNg,Little Italy's Family Restaurant & Catering,24436 State Rd 54,Lutz,FL,33559,28.1853057,-82.4118413,4.0,346,"American (New), Seafood, Event Planning & Services, Caterers, Italian, Restaurants, American (Traditional), Pizza","{'Monday': '0:0-0:0', 'Tuesday': '9:0-17:0', 'Wednesday': '9:0-17:0', 'Thursday': '9:0-17:0', 'Friday': '9:0-17:0', 'Saturday': '9:0-21:0'}"
NBVR352MT2JkObaT1MfIDQ,Don Taco Mexican Restaurant,672 E Tarpon Ave,Tarpon Springs,FL,34689,28.1462109,-82.7468238,4.5,228,"Mexican, Restaurants","{'Monday': '11:0-20:0', 'Tuesday': '11:0-20:0', 'Wednesday': '11:0-20:0', 'Thursday': '11:0-20:0', 'Friday': '11:0-20:0', 'Saturday': '11:0-20:0'}"
nYZJW0VSRtieUjXJ-laIrQ,Taco Bell,3802 South Dale Mabry Highway,Tampa,FL,33611,27.907212627,-82.505713908,1.5,42,"Restaurants, Mexican, Tacos, Tex-Mex, Fast Food, Breakfast & Brunch","{'Monday': '8:0-3:0', 'Tuesday': '8:0-3:0', 'Wednesday': '8:0-3:0', 'Thursday': '8:0-3:0', 'Friday': '8:0-4:0', 'Saturday': '8:0-4:0', 'Sunday': '8:0-3:0'}"
9veZaK_zyKQw0QgOdQDxGA,Cleveland Street Cafe,615 Cleveland St,Clearwater,FL,33755,27.9653649,-82.7979667,4.0,19,"Wine Bars, Restaurants, Food, Bars, Cafes, Nightlife, Italian, Diners, Beer, Wine & Spirits","{'Monday': '0:0-0:0', 'Tuesday': '17:30-20:0', 'Wednesday': '17:30-20:0', 'Thursday': '17:30-20:0', 'Friday': '11:0-21:0', 'Saturday': '11:0-21:0'}"
i607N2kaxpGXXeSVsQFJBQ,Seminole Subs & Gyros,1001 S Missouri Ave,Clearwater,FL,33756,27.9549583,-82.7872498,3.5,59,"Sandwiches, American (New), Greek, Restaurants","{'Monday': '10:0-23:0', 'Tuesday': '10:0-23:0', 'Wednesday': '10:0-23:0', 'Thursday': '10:0-23:0', 'Friday': '10:0-0:0', 'Saturday': '10:0-23:0', 'Sunday': '10:0-22:0'}"
TK4dPtI2fglPR3LhUEoCmg,Pepitos After Hours,2710 W Waters Ave,Tampa,FL,33614,28.0248010628,-82.4874221314,4.0,63,"Fast Food, Imported Food, Specialty Food, Latin American, Spanish, Food, Ethnic Food, Restaurants","{'Tuesday': '11:45-22:0', 'Wednesday': '11:45-22:0', 'Thursday': '11:45-22:0', 'Friday': '11:45-0:0', 'Saturday': '15:0-0:0', 'Sunday': '16:0-22:0'}"
M-BlJ2_bFtDr1moY3vk2ug,Kingfish Grill & Tap House,3580 Ulmerton Rd,Clearwater,FL,33762,27.8929173,-82.6821852,3.5,77,"Sushi Bars, Restaurants, Seafood, Steakhouses, American (Traditional)","{'Monday': '7:0-22:0', 'Tuesday': '7:0-22:0', 'Wednesday': '7:0-22:0', 'Thursday': '7:0-22:0', 'Friday': '7:0-23:0', 'Saturday': '7:0-23:0', 'Sunday': '7:0-22:0'}"
Oo2QSeBVkx8HJQm8SIL1Fg,Mellow Mushroom,11955 Sheldon Rd,Tampa,FL,33626,28.0574104,-82.5821657,4.0,303,"Salad, Nightlife, Restaurants, Pizza, Sandwiches, Vegan, Bars, Food, Beer, Wine & Spirits","{'Monday': '0:0-0:0', 'Tuesday': '11:0-22:0', 'Wednesday': '11:0-22:0', 'Thursday': '15:0-20:30', 'Friday': '15:0-20:30', 'Saturday': '15:0-20:30', 'Sunday': '15:0-20:30'}"
MoGdRI5ZTDr-Hg2lubA4LA,Jo Jo‚Äôs Italian Diner,217 S Pinellas Ave,Tarpon Springs,FL,34689,28.1446656555,-82.7564997768,4.5,47,"Italian, Soup, Salad, Restaurants","{'Tuesday': '11:0-21:0', 'Wednesday': '11:0-21:0', 'Thursday': '11:0-21:0', 'Friday': '11:0-22:0', 'Saturday': '11:0-22:0'}"
aqbwtK_JFkuoODbISEzYzw,Golden Star Chinese Restaurant,10805 102nd Ave,Seminole,FL,33778,27.8659577,-82.7885077,3.5,24,"Chinese, Restaurants","{'Monday': '11:0-21:30', 'Tuesday': '11:0-21:30', 'Wednesday': '11:0-21:30', 'Thursday': '11:0-21:30', 'Friday': '11:0-21:30', 'Saturday': '11:0-21:30', 'Sunday': '12:0-21:30'}"
9582WUc5l40_vQUWDLKxOA,Clementine Chef,,Tampa,FL,33604,28.0165404,-82.4590282,4.5,34,"Salad, Gluten-Free, Sandwiches, Food, Restaurants, Food Delivery Services, Bakeries","{'Monday': '0:0-0:0', 'Tuesday': '8:0-14:0', 'Wednesday': '8:0-14:0', 'Thursday': '8:0-14:0', 'Friday': '8:0-14:0', 'Saturday': '8:0-14:0'}"
vXQLdqB-stL2JTP5AsPVaA,Samurai Blue Sushi & Sake Bar,"1600 E 8th Ave, Ste C208",Tampa,FL,33605,27.9608345486,-82.4417488807,4.0,504,"Restaurants, Japanese, Soup, Sushi Bars","{'Monday': '17:0-23:0', 'Tuesday': '17:0-23:0', 'Wednesday': '17:0-0:0', 'Thursday': '17:0-0:0', 'Friday': '17:0-1:0', 'Saturday': '17:0-1:0', 'Sunday': '17:0-23:0'}"
CIr9Vbx1hgqFZbSjXXSWGQ,Pho Kien Giang 2,8199 N Dale Mabry Hwy,Tampa,FL,33614,28.0229037,-82.5044276,4.0,67,"Wine Bars, Nightlife, Bars, Beer Bar, Vietnamese, Restaurants","{'Monday': '0:0-0:0', 'Tuesday': '11:0-20:0', 'Wednesday': '11:0-20:0', 'Thursday': '11:0-20:0', 'Friday': '11:0-21:0', 'Saturday': '11:0-21:0', 'Sunday': '11:0-20:0'}"
D89ZWdqyuidrkXIA4V2O5w,Hungry Howie's Pizza & Subs,14916 N Florida Ave,Tampa,FL,33613,28.0852866,-82.4600627,2.5,10,"Chicken Wings, Italian, Sandwiches, Restaurants, Pizza","{'Monday': '16:0-0:0', 'Tuesday': '16:0-0:0', 'Wednesday': '11:0-0:0', 'Thursday': '11:0-0:0', 'Friday': '11:0-1:0', 'Saturday': '11:0-1:0', 'Sunday': '11:0-0:0'}"
SvlaBcTzfvYQleBiy3WQCQ,Greenland Restaurant,"4817 E Busch Blvd, Ste 112",Tampa,FL,33618,28.0322817687,-82.4063180046,4.0,12,"Middle Eastern, Restaurants, Diners, Kosher",Hours not specified
6vl3AScsgSNIeuM8woSGSg,Panai Thai Restaurant,11922 Seminole Blvd,Largo,FL,33778,27.8814113,-82.78823,4.5,72,"Restaurants, Laotian, Thai, Sushi Bars","{'Monday': '16:0-21:0', 'Tuesday': '16:0-21:0', 'Wednesday': '16:0-21:0', 'Thursday': '16:0-21:0', 'Friday': '16:0-21:0', 'Saturday': '16:0-21:0', 'Sunday': '16:0-21:0'}"
OD6RYPrU2QTyTg6_4GYpbA,Brandon Pizzeria,140 N Parsons Ave,Brandon,FL,33510,27.9392063,-82.2860844,3.5,147,"Salad, Pizza, Restaurants, Italian","{'Monday': '11:0-22:0', 'Tuesday': '11:0-22:0', 'Wednesday': '11:0-22:0', 'Thursday': '11:0-22:0', 'Friday': '11:0-23:0', 'Saturday': '11:0-22:0', 'Sunday': '11:0-22:0'}"
vtUoFOyhekVSVp5Y-I8ULw,Tijuana Flats,"17501 Preserve Walk Ln., #103",Tampa,FL,33647,28.1276439,-82.3697259,3.5,59,"Restaurants, Mexican, Tex-Mex","{'Monday': '0:0-0:0', 'Tuesday': '11:0-22:0', 'Wednesday': '11:0-22:0', 'Thursday': '11:0-22:0', 'Friday': '11:0-14:0', 'Saturday': '11:0-22:0', 'Sunday': '11:0-21:0'}"
I7tuRXZyKCB8SWaq3tQVqA,La Peque√±a Colombia,6312 N Armenia Ave,Tampa,FL,33604,28.004715,-82.4847094,4.0,263,"Food, Restaurants, Colombian, Empanadas, Latin American, Venues & Event Spaces, Bars, Event Planning & Services, Nightlife","{'Monday': '11:0-20:0', 'Wednesday': '11:0-20:0', 'Thursday': '11:0-20:0', 'Friday': '11:0-22:0', 'Saturday': '11:0-22:0', 'Sunday': '11:0-20:0'}"
R4NUjB9RLfaZr2OcFfxB2Q,Perdigon El Sabor,"8548 N Dale Mabry Hwy, Ste 1A",Tampa,FL,33614,28.0286692,-82.5057506,4.0,162,"Restaurants, Filipino, Mexican, Steakhouses, Tacos, Salad, Venezuelan, Latin American","{'Tuesday': '11:30-21:0', 'Wednesday': '11:30-21:0', 'Thursday': '11:30-21:0', 'Friday': '11:30-22:0', 'Saturday': '11:30-22:0', 'Sunday': '11:30-20:0'}"
AvT60oEgrncToOSrETmkLg,The Olde Heights Bistro,4703 N Nebraska Ave,Tampa,FL,33603,27.9881518,-82.4509242,4.0,106,"Wine Bars, Sandwiches, Restaurants, Japanese, Nightlife, Bars, Tapas/Small Plates, Sushi Bars, American (New)","{'Monday': '0:0-0:0', 'Tuesday': '11:30-14:30', 'Wednesday': '18:0-22:0', 'Thursday': '18:0-22:0', 'Friday': '18:0-22:0', 'Saturday': '18:0-22:0'}"
iDCPPrnKb8wTdx_HbGxj5A,Marchello's Pizzeria,17669 Dale Mabry Hwy N,Lutz,FL,33548,28.1261354,-82.5008075,3.0,128,"Pizza, Gluten-Free, Restaurants, Italian","{'Monday': '11:0-21:0', 'Tuesday': '11:0-21:0', 'Wednesday': '11:0-21:0', 'Thursday': '11:0-21:0', 'Friday': '11:0-23:0', 'Saturday': '11:0-23:0', 'Sunday': '11:0-21:0'}"
YgG-yAuu5sthGjl2WBa1NQ,Jimmy Hula's,454 Mandalay Ave,Clearwater,FL,33767,27.9804383557,-82.8274458647,4.0,360,"Mexican, Burgers, Beer, Wine & Spirits, Tacos, Beer Bar, Food, Restaurants, Breakfast & Brunch, Bars, Nightlife","{'Monday': '0:0-0:0', 'Tuesday': '11:0-22:0', 'Wednesday': '11:0-22:0', 'Thursday': '11:0-22:0', 'Friday': '11:0-0:0', 'Saturday': '10:0-0:0', 'Sunday': '10:0-20:0'}"
cgBFrZC0mFVrS1q_uAJgzQ,Los Mexicanos Mexican Restaurant,301 Gulf Blvd,Indian Rocks Beach,FL,33785,27.8807526,-82.8501374,2.5,184,"Restaurants, Mexican","{'Monday': '11:0-21:0', 'Tuesday': '11:0-21:0', 'Wednesday': '11:0-21:0', 'Thursday': '11:0-21:0', 'Friday': '11:0-22:0', 'Saturday': '11:0-22:0', 'Sunday': '12:0-21:0'}"
pKONQc8eYlnF0L54YpJdQQ,Hacienda Corralejo Mexican Kitchen,1228 Cleveland St,Clearwater,FL,33755,27.966096,-82.786228,4.5,309,"Mexican, Restaurants","{'Monday': '11:0-22:0', 'Tuesday': '11:0-22:0', 'Wednesday': '11:0-22:0', 'Thursday': '11:0-22:0', 'Friday': '11:0-23:0', 'Saturday': '11:0-23:0', 'Sunday': '11:0-22:0'}"
gMLd9wEcsB17vhraoIGydw,Oriental Super Buffet,2456 Gulf To Bay Blvd,Clearwater,FL,33765,27.9610627,-82.7355992,3.0,110,"Asian Fusion, Sushi Bars, Buffets, Restaurants",Hours not specified
ksqhVcNkVRG6vKocF1MObQ,Volcano Japanese Cuisine,"1550 N Mcmullen Booth Rd, Ste F4",Clearwater,FL,33759,27.9814518,-82.7111416,4.0,57,"Restaurants, Sushi Bars, Buffets, Japanese","{'Monday': '11:0-22:0', 'Tuesday': '11:0-22:0', 'Wednesday': '11:0-22:0', 'Thursday': '11:0-22:0', 'Friday': '11:0-23:0', 'Saturday': '11:0-23:0', 'Sunday': '12:0-21:30'}"
u3pFlx35VU-QhK15Dn5Y-A,Senor Loco's Mexican Grill & Cantina,2680 Gulf To Bay Blvd,Clearwater,FL,33759,27.9607507,-82.7265027,2.5,12,"Mexican, Restaurants","{'Monday': '11:0-23:0', 'Tuesday': '11:0-23:0', 'Wednesday': '11:0-23:0', 'Thursday': '11:0-23:0', 'Friday': '11:0-23:0', 'Saturday': '11:0-23:0', 'Sunday': '11:0-22:0'}"
XikEvo8czuw7aqBQ00cqyA,Taste Of China,658 E Lake Rd,Palm Harbor,FL,34685,28.0623795978,-82.7084231801,2.5,33,"Food, Restaurants, Chinese","{'Monday': '11:0-22:0', 'Tuesday': '11:0-22:0', 'Wednesday': '11:0-22:0', 'Thursday': '11:0-22:0', 'Friday': '11:0-23:0', 'Saturday': '11:0-23:0', 'Sunday': '11:30-22:0'}"
B-H-zZYLfUIOMY_y_nEraA,Hibachi Buffet at Clearwater FL,2456 Gulf To Bay Blvd,Clearwater,FL,33765,27.9612237817,-82.7356099314,2.0,15,"Chinese, Buffets, Restaurants","{'Monday': '11:0-22:0', 'Tuesday': '11:0-22:0', 'Wednesday': '11:0-22:0', 'Thursday': '11:0-22:0', 'Friday': '11:0-22:30', 'Saturday': '11:0-22:30', 'Sunday': '11:0-22:0'}"
PW1lvT2bJCg8cH0ClgWnBg,La Cucina Fanti,810 Welsh Rd,Horsham,FL,19044,40.1787166,-75.1788884,4.0,54,"Sandwiches, Pasta Shops, Italian, Food, Specialty Food, Restaurants, Pizza","{'Monday': '0:0-0:0', 'Tuesday': '11:0-21:0', 'Wednesday': '11:0-21:0', 'Thursday': '10:0-22:0', 'Friday': '11:0-22:0', 'Saturday': '11:0-21:30', 'Sunday': '12:0-21:0'}"
sxhU1NUGDYRmp2TtlTLreQ,Taqueria Don Julios,3050 E College Ave,Ruskin,FL,33570,27.7140664083,-82.3911842331,3.5,36,"Restaurants, Mexican",Hours not specified
ymvcFCWLCitr2AQoA4gV-g,The Hyde Out,1809 W Platt St,Tampa,FL,33606,27.9420144715,-82.4785577314,3.5,127,"Sports Bars, Restaurants, Music Venues, American (New), Lounges, Sushi Bars, Nightlife, Bars, Arts & Entertainment","{'Tuesday': '17:0-1:0', 'Wednesday': '17:0-1:0', 'Thursday': '17:0-1:0', 'Friday': '17:0-3:0', 'Saturday': '17:0-3:0', 'Sunday': '11:0-22:0'}"
dMkvmMmZU5i94_vYN-zKJg,FuKu Japanese Cafe,530 Cleveland St,Clearwater,FL,33755,27.965791222100002,-82.7989758924,3.5,29,"Desserts, Sushi Bars, Restaurants, Seafood, Ramen, Japanese, Food","{'Monday': '17:0-21:0', 'Tuesday': '17:0-21:0', 'Wednesday': '17:0-21:0', 'Thursday': '17:0-21:0', 'Friday': '17:0-22:0', 'Saturday': '17:0-22:0'}"
mi63FnVXGeGgasWxUSeRsA,Noble Crust,11618 N Dale Mabry Hwy,Tampa,FL,33618,28.0542997,-82.5048488,4.0,503,"Restaurants, Breakfast & Brunch, Pizza, Southern, Italian","{'Tuesday': '16:0-21:0', 'Wednesday': '16:0-21:0', 'Thursday': '16:0-21:0', 'Friday': '16:0-23:0', 'Saturday': '10:30-23:0', 'Sunday': '10:30-15:0'}"
DGfPqoXbtm2IcVAVU0BTFQ,Dominic's Italian Grille & Pizzeria,3163 Curlew Rd,Oldsmar,FL,34677,28.0492673732,-82.6962590218,3.5,16,"Pizza, Italian, Restaurants","{'Monday': '11:0-21:0', 'Tuesday': '11:0-21:0', 'Wednesday': '11:0-21:0', 'Thursday': '11:0-21:0', 'Friday': '11:0-23:0', 'Saturday': '11:0-23:0', 'Sunday': '11:0-21:0'}"
xTUcyLMpKTKm6miCN_4VgA,Speedway,33600 Us Highway 19 N,Palm Harbor,FL,34684,28.0774362989,-82.7398366411,3.5,6,"Convenience Stores, Food, Beer, Wine & Spirits, Gas Stations, Automotive, Coffee & Tea","{'Monday': '0:0-0:0', 'Tuesday': '0:0-0:0', 'Wednesday': '0:0-0:0', 'Thursday': '0:0-0:0', 'Friday': '0:0-0:0', 'Saturday': '0:0-0:0', 'Sunday': '0:0-0:0'}"
VjtTBJqC5PM7QDsWxFNS_w,St. Petersburg's Super Greek Festival,3600 76th St N,Saint Petersburg,FL,33710,27.8047940489,-82.7443240034,4.5,8,"Greek, Arts & Entertainment, Festivals, Restaurants",Hours not specified
nVVyZOyB3u605pdUtG5NTA,Grain and Berry,1155 S Dale Mabry Hwy,Tampa,FL,33629,27.9324458774,-82.5070745308,4.0,78,"Vegan, Food, Restaurants, Acai Bowls, Juice Bars & Smoothies","{'Monday': '0:0-0:0', 'Tuesday': '9:0-21:0', 'Wednesday': '9:0-21:0', 'Thursday': '9:0-21:0', 'Friday': '9:0-16:0', 'Saturday': '9:0-21:0', 'Sunday': '9:0-21:0'}"
aoi5wmCh-imzdq3nVRIe5g,Nojaks Tasty Foods,305 E Polk St Tampa,Tampa,FL,33606,27.9506771,-82.458829,5.0,5,"Vegan, Restaurants, Burgers, Fast Food","{'Thursday': '11:0-21:0', 'Friday': '11:0-0:0', 'Saturday': '12:0-0:0'}"
U44pOBmOAXr7PDCc1NStPg,China Garden,2154 E Bay Dr,Largo,FL,33771,27.917872,-82.764172,3.5,28,"Restaurants, Chinese","{'Monday': '0:0-0:0', 'Tuesday': '11:0-21:30', 'Wednesday': '11:0-21:30', 'Thursday': '11:0-21:30', 'Friday': '11:0-21:30', 'Saturday': '11:0-21:30', 'Sunday': '11:45-22:0'}"
NQOanTtODqpwhiQ4VCigaQ,Mobil,3699 W Gandy Blvd,Tampa,FL,33611,27.894011,-82.505868,3.5,10,"Automotive, Auto Repair, Oil Change Stations, Convenience Stores, Gas Stations, Food","{'Monday': '8:0-18:0', 'Tuesday': '8:0-18:0', 'Wednesday': '8:0-18:0', 'Thursday': '8:0-18:0', 'Friday': '8:0-18:0', 'Saturday': '8:0-18:0', 'Sunday': '8:0-17:0'}"
SQmg_3x5JkjMl-16tjqjUg,Hong Kong House,1120 E Fowler Ave,Tampa,FL,33612,28.0550609,-82.4472421,3.5,171,"Seafood, Restaurants, Asian Fusion, Cantonese, Specialty Food, Dim Sum, Food, Chinese","{'Monday': '10:30-21:0', 'Tuesday': '11:0-0:0', 'Wednesday': '11:0-0:0', 'Thursday': '10:30-22:0', 'Friday': '11:0-0:0', 'Saturday': '10:30-0:0', 'Sunday': '10:30-21:0'}"
qCtdR8H4dbVRCzaCr_wMcg,House of China,3899 Ulmerton Rd,Clearwater,FL,33762,27.8951797,-82.6869038,2.5,30,"Chinese, Restaurants",Hours not specified
7M492o9j_LLcmvkA3kV_ag,Ruby Thai Kitchen,"27001 US Hwy 19 N, Ste 2081",Clearwater,FL,33761,28.0379796003,-82.72275,3.5,8,"Restaurants, Thai",Hours not specified
jOrXOU5FrC09BDAdBh0VDA,Stinky Bunz,Downtown,Tampa,FL,33602,27.9552692,-82.4563199,4.5,12,"Restaurants, Food Trucks, Street Vendors, Korean, Food",Hours not specified
IP-1mFLExknOQfWIOTYDHQ,Hacienda Mexican Grill,2551 Drew St,Clearwater,FL,33765,27.967192,-82.731746,3.0,21,"Mexican, Restaurants","{'Monday': '11:0-22:0', 'Tuesday': '11:0-22:0', 'Wednesday': '11:0-22:0', 'Thursday': '11:0-22:0', 'Friday': '11:0-22:0', 'Saturday': '12:0-22:0', 'Sunday': '12:0-21:0'}"
CqkMK7o0sWCKulu_rSdSbA,Panda Hut,"1441 E Fletcher Ave, Ste 115",Tampa,FL,33612,28.0688059,-82.4437847,4.5,46,"Chinese, Hot Pot, Szechuan, Restaurants","{'Tuesday': '11:0-22:0', 'Wednesday': '11:0-22:0', 'Thursday': '11:0-22:0', 'Friday': '11:0-22:0', 'Saturday': '11:0-22:0'}"
-nFhHFySIOCBQW4-zHtnHw,Latin Grill  - Brandon,3318 John Moore,Brandon,FL,33511,27.8939445425,-82.2855443933,3.5,139,"Restaurants, Cuban, Spanish, Food, Latin American","{'Monday': '7:0-21:0', 'Tuesday': '7:0-21:0', 'Wednesday': '7:0-21:0', 'Thursday': '7:0-21:0', 'Friday': '7:0-23:30', 'Saturday': '7:0-23:30', 'Sunday': '7:0-21:0'}"
-5psHqEISccHDdHaWF2-6Q,Pholicious,8027 Citrus Park Town Center Mall,Tampa,FL,33625,28.0694972,-82.5769235,3.0,26,"Food, Restaurants, Vietnamese",Hours not specified
6OCISgKlFdwGy81ijqSFaA,Total Taco,"5226 Gunn Hwy, Ste 1",Tampa,FL,33624,28.056804,-82.5320062414,4.0,25,"Food, Restaurants, Mexican, Tacos, Food Trucks","{'Monday': '14:0-23:0', 'Tuesday': '0:0-0:0', 'Wednesday': '0:0-0:0', 'Thursday': '0:0-0:0', 'Friday': '0:0-0:0', 'Saturday': '0:0-0:0', 'Sunday': '0:0-0:0'}"
4ivWLNbOQr_s9D5_GGkVkg,China Wok,8412 N Armenia Ave,Tampa,FL,33604,28.026128,-82.48611,4.0,10,"Restaurants, Chinese","{'Monday': '11:0-22:30', 'Tuesday': '11:0-22:30', 'Wednesday': '11:0-22:30', 'Thursday': '11:0-22:30', 'Friday': '11:0-22:0', 'Saturday': '10:30-22:0', 'Sunday': '12:0-21:30'}"
WB-eQAgw88fbr15eY761CA,Osteria Natalina,3215 S MacDill Ave,Tampa,FL,33629,27.916779,-82.494288,4.5,400,"Italian, Restaurants","{'Tuesday': '17:30-22:30', 'Wednesday': '17:30-22:30', 'Thursday': '17:30-22:0', 'Friday': '17:30-22:30', 'Saturday': '17:30-22:30', 'Sunday': '17:30-22:30'}"
iOc82mPETt6pEhGIbbGxbg,Wok N Roll,2802 W Kennedy Blvd,Tampa,FL,33609,27.9445005,-82.4893886,3.5,47,"Chinese, Restaurants","{'Monday': '10:30-22:0', 'Tuesday': '10:30-22:0', 'Wednesday': '10:30-22:0', 'Thursday': '10:30-22:0', 'Friday': '10:30-22:0', 'Saturday': '10:30-22:0', 'Sunday': '12:0-22:0'}"
r1XEoeXAwx85DW794kOkbQ,Tun-Du-Ree,1506 W Kennedy Blvd,Tampa,FL,33606,27.9442747,-82.4751004,3.0,33,"Pakistani, Restaurants, Indian, Food","{'Monday': '11:0-22:0', 'Tuesday': '11:0-22:0', 'Wednesday': '11:0-22:0', 'Thursday': '11:0-22:0', 'Friday': '11:0-22:0', 'Saturday': '12:0-22:0'}"
wS5eU8PuolIGGvMVV-TeuQ,Laziz,2475-J N McMullen Booth Rd,Clearwater,FL,33759,28.0113856338,-82.7110409649,3.5,62,"Pakistani, Restaurants, Indian","{'Tuesday': '17:0-21:30', 'Wednesday': '17:0-21:30', 'Thursday': '17:0-21:30', 'Friday': '17:0-22:30', 'Saturday': '17:0-22:30', 'Sunday': '17:0-21:30'}"
9nvEI73zl6YL8mfaWm_Alw,La Perrada Lounge,6710 Hanley Rd,Tampa,FL,33634,28.0088568041,-82.5626129799,3.0,8,"Cocktail Bars, Bars, Nightlife, Latin American, Colombian, Restaurants","{'Monday': '11:30-21:0', 'Tuesday': '11:30-21:0', 'Wednesday': '11:30-21:0', 'Thursday': '11:30-21:0', 'Friday': '11:30-3:0', 'Saturday': '11:30-3:0', 'Sunday': '11:30-0:0'}"
rj0XlR3uXbH_pt7UWP3NQg,Xochimex Cantina Grill,11703 Hamlin Blvd,Largo,FL,33774,27.879626,-82.8402704,4.0,9,"Restaurants, Caterers, Fast Food, Mexican, Tex-Mex, Event Planning & Services, Food, Food Trucks","{'Tuesday': '11:0-21:0', 'Wednesday': '11:0-21:0', 'Thursday': '11:0-21:0', 'Friday': '11:0-21:0', 'Saturday': '11:0-21:0'}"
jnNEkOCTFHyLB37HAzM1iQ,Hooks Sushi Bar & Thai Food,1210 9th St N,Saint Petersburg,FL,33705,27.7837466,-82.6468773,3.5,254,"Chinese, Japanese, Sushi Bars, Restaurants, Thai","{'Monday': '17:0-22:0', 'Tuesday': '17:0-22:0', 'Wednesday': '17:0-22:0', 'Thursday': '17:0-22:0', 'Friday': '17:0-22:0', 'Saturday': '17:0-22:0', 'Sunday': '17:0-21:0'}"
d9bspffQYbRQquP8lLlWLQ,RaceTrac,12750 W Hillsborough Ave,Tampa,FL,33635,28.0280432103,-82.63696126,4.0,14,"Gas Stations, Automotive, Convenience Stores, Food","{'Monday': '0:0-0:0', 'Tuesday': '0:0-0:0', 'Wednesday': '0:0-0:0', 'Thursday': '0:0-0:0', 'Friday': '0:0-0:0', 'Saturday': '0:0-0:0', 'Sunday': '0:0-0:0'}"
UaCnhb7NEUAPR2okEIVa1g,Pho Bowl - Palm Harbor,600 Alternate US 19 N,Palm Harbor,FL,34683,28.0737569161,-82.76680385,4.5,72,"Restaurants, Vietnamese, Coffee & Tea, Food, Juice Bars & Smoothies","{'Monday': '11:0-21:0', 'Wednesday': '11:0-21:0', 'Thursday': '11:0-21:0', 'Friday': '11:0-21:0', 'Saturday': '11:0-21:0', 'Sunday': '12:0-21:0'}"
khyWAD47G6qHkkfz4z0sYQ,Asian Wok,202 37th Ave N,Saint Petersburg,FL,33703,27.805999,-82.6352399,3.5,45,"Restaurants, Chinese","{'Monday': '11:0-22:0', 'Tuesday': '11:0-22:0', 'Wednesday': '11:0-22:0', 'Thursday': '11:0-22:0', 'Friday': '11:0-23:0', 'Saturday': '11:0-23:0', 'Sunday': '12:0-22:0'}"
NrKVh-Y8Sfu9-He9988DBQ,Tequilas,1613 E 7th Ave,Tampa,FL,33605,27.9600504,-82.4410191,3.0,243,"Bars, Nightlife, Mexican, Gluten-Free, Vegetarian, American (Traditional), Restaurants, Arts & Entertainment, Music Venues","{'Monday': '11:30-22:0', 'Tuesday': '11:30-0:0', 'Wednesday': '11:30-0:0', 'Thursday': '11:30-0:0', 'Friday': '11:30-1:0', 'Saturday': '11:0-1:0', 'Sunday': '11:0-22:0'}"
pGM44vXYa6lke-dU4h-xpA,Olive Garden Italian Restaurant,2801 E Busch Blvd,Tampa,FL,33612,28.032223841,-82.4281075539,3.0,112,"Bars, Italian, Sandwiches, Restaurants, Wine Bars, Soup, Salad, Nightlife","{'Monday': '0:0-0:0', 'Tuesday': '11:0-22:0', 'Wednesday': '11:0-22:0', 'Thursday': '11:0-20:0', 'Friday': '11:0-23:0', 'Saturday': '11:0-23:0', 'Sunday': '11:0-22:0'}"
0NHmFJnDcXEcSoGJuUBYYA,Carpeneto,7990 Citrus Park Town Ctr Blvd,Tampa,FL,33625,28.067933,-82.572262,3.5,36,"Nightlife, Italian, Mediterranean, Restaurants, Bars","{'Monday': '11:0-21:0', 'Tuesday': '11:0-21:0', 'Wednesday': '11:0-21:0', 'Thursday': '11:0-22:0', 'Friday': '11:0-22:0', 'Saturday': '11:0-22:0', 'Sunday': '11:0-21:0'}"
TFjkMytVrHIPPRIo3-BtKw,Chula's Mexican Grill - Palm Harbor,34726 US Hwy 19 N,Palm Harbor,FL,34684,28.0882316,-82.7401206,3.5,55,"Mexican, Restaurants","{'Tuesday': '14:0-21:0', 'Wednesday': '14:0-21:0', 'Thursday': '14:0-21:0', 'Friday': '12:0-21:0', 'Saturday': '12:0-21:0', 'Sunday': '12:0-20:0'}"
7Cpp1cVc1mtC3PVicq9dLQ,Sweetea Cafe,25704 Sierra Center Blvd,Lutz,FL,33559,28.195108,-82.391879,4.5,152,"Vietnamese, Sandwiches, Restaurants, Food, Coffee & Tea, Bubble Tea","{'Monday': '0:0-0:0', 'Tuesday': '11:0-20:0', 'Wednesday': '11:0-20:0', 'Thursday': '11:0-20:0', 'Friday': '11:0-20:0', 'Saturday': '11:0-20:0', 'Sunday': '11:0-19:0'}"
_WXisiele6N-scYh2m8Gmw,Carrabba's Italian Grill,11435 N Dale Mabry Hwy,Tampa,FL,33618,28.052576,-82.503485,3.5,91,"Nightlife, Bars, Seafood, Italian, Restaurants","{'Monday': '0:0-0:0', 'Tuesday': '11:0-22:0', 'Wednesday': '11:0-22:0', 'Thursday': '11:0-22:0', 'Friday': '11:0-23:0', 'Saturday': '11:0-23:0', 'Sunday': '11:0-21:0'}"
Bc0uY0dOcOtImu3evffKfQ,Taco de Oro,10002 No Florida Ave,Tampa,FL,33612,28.0403682349,-82.4598239735,4.5,20,"Tacos, Restaurants, Food, Mexican, Food Trucks","{'Monday': '10:0-21:0', 'Tuesday': '10:0-21:0', 'Wednesday': '10:0-21:0', 'Thursday': '10:0-21:0', 'Friday': '10:0-21:0', 'Saturday': '10:0-21:0', 'Sunday': '10:0-18:0'}"
i85OpzM6-2kdF4f_rOlAIw,The Spot Sushi Burritos & Vietnamese Cuisine,8787 N 56th St,Temple Terrace,FL,33617,28.0284727,-82.3921999,4.5,21,"Vietnamese, Restaurants, Japanese, Mongolian, Asian Fusion, Sushi Bars","{'Monday': '11:0-21:0', 'Tuesday': '11:0-21:0', 'Wednesday': '11:0-21:0', 'Thursday': '11:0-21:0', 'Friday': '11:0-21:0', 'Saturday': '11:0-21:0', 'Sunday': '11:0-21:0'}"
kkAyWX3toco_aLk0nNM-3A,Villa Rina Pizza,10073 E Adamo Dr,Tampa,FL,33619,27.9419481,-82.3378595,4.0,73,"Restaurants, Pizza, Gluten-Free, Cheesesteaks, Sandwiches, Salad","{'Monday': '10:0-20:0', 'Tuesday': '10:0-20:0', 'Wednesday': '10:0-20:0', 'Thursday': '10:0-20:0', 'Friday': '10:0-21:0', 'Saturday': '10:0-21:0'}"
X88peRm-n4CCwsQDO9y_PA,Monty's Italian Restaurant and Pizzaria,2169 N Hercules Ave,Clearwater,FL,33763,28.0004552884,-82.7544286861,4.0,12,"Italian, Restaurants, Pizza","{'Monday': '11:0-22:0', 'Tuesday': '11:0-22:0', 'Wednesday': '11:0-22:0', 'Thursday': '11:0-22:0', 'Friday': '11:0-23:0', 'Saturday': '11:0-23:0', 'Sunday': '11:0-21:0'}"
-zGlHyBaxib9p7k18i5TSA,Organic Goddess Cafe,1219 Florida Ave,Palm Harbor,FL,34683,28.0782015549,-82.7645599786,4.5,23,"Organic Stores, Restaurants, Food, Active Life, Yoga, Vegetarian, Fitness & Instruction, Vegan, Cafes, Dance Studios, Juice Bars & Smoothies","{'Monday': '0:0-0:0', 'Tuesday': '10:0-17:0', 'Wednesday': '10:0-17:0', 'Thursday': '10:0-22:0', 'Friday': '10:0-22:0', 'Saturday': '10:0-22:0', 'Sunday': '12:0-18:0'}"
aZb8pOxbcj8Aft5RtPf7_g,Sumo's,301 E Twiggs St,Tampa,FL,33602,27.9491626,-82.4583255,3.0,9,"Restaurants, Thai","{'Monday': '11:0-16:0', 'Tuesday': '11:0-16:0', 'Wednesday': '11:0-16:0', 'Thursday': '11:0-16:0', 'Friday': '11:0-16:0', 'Saturday': '11:0-16:0'}"
ft8R-SUePNtfrfWk_j3oKw,Lee Garden,8309 W Hillsborough Ave,Tampa,FL,33615,27.9970185,-82.5760952,3.5,48,"Restaurants, Chinese, Vietnamese","{'Monday': '11:0-21:30', 'Tuesday': '11:0-21:30', 'Wednesday': '11:0-21:30', 'Thursday': '11:0-21:30', 'Friday': '11:0-21:30', 'Saturday': '11:30-21:30', 'Sunday': '11:30-21:30'}"
lkcJsaB7TIRHDoWXO2wiqg,China Wok,2556 E Bearss Ave,Tampa,FL,33613,28.0873204468,-82.4506215078,3.5,6,"Chinese, Restaurants",Hours not specified
zDhI72O4RGfivPdObgCE-g,Gogos Greek Grill,4616 W Kennedy Blvd,Tampa,FL,33609,27.9445508,-82.5228301,3.5,129,"Mediterranean, Restaurants, Greek, Sandwiches","{'Monday': '11:0-15:0', 'Tuesday': '11:0-15:0', 'Wednesday': '11:0-15:0', 'Thursday': '11:0-15:0', 'Friday': '11:0-15:0'}"
RF2nNrvOV8n3lFPCd2jfpg,Banh Mi House,13709 N Dale Mabry Hwy,Tampa,FL,33618,28.070535,-82.505622,4.5,108,"Restaurants, Vietnamese","{'Monday': '10:0-20:0', 'Tuesday': '10:0-20:0', 'Wednesday': '10:0-20:0', 'Thursday': '10:0-20:0', 'Friday': '10:0-20:0', 'Saturday': '10:0-20:0'}"
Rxvr6bTqWkVpsbNEdkMIuQ,Latin Cafe 2000,829 E Bloomingdale Ave,Brandon,FL,33511,27.8937228,-82.2698737,3.0,6,"Restaurants, Food, Latin American",Hours not specified
cT2OaiaLGQa6fEZlgcQHKw,Arepa Marketplace Latin Cafe,11142 N 30th St,Tampa,FL,33612,28.0498245,-82.4266658832,4.5,54,"Latin American, Burgers, Venezuelan, Food, Hot Dogs, Empanadas, Restaurants, Breakfast & Brunch",{'Monday': '0:0-0:0'}
Ve5zx8XJN60-ohKUOGwQJg,Dharma Southern Kitchen,1910 N Ola Ave,Tampa,FL,33602,27.9611064,-82.4640636,4.5,168,"Vegetarian, Vegan, Restaurants, Southern","{'Monday': '0:0-0:0', 'Tuesday': '11:0-22:0', 'Wednesday': '11:0-22:0', 'Thursday': '11:0-22:0', 'Friday': '11:0-22:0', 'Saturday': '11:0-23:0', 'Sunday': '11:0-21:0'}"
x0JkV6KSVI_H83tv20rxDw,Estella's,4234 W Bay To Bay Blvd,Tampa,FL,33629,27.919596,-82.515643,3.0,5,"Flowers & Gifts, Mexican, Restaurants, Children's Clothing, Fashion, Shopping",Hours not specified
-nb8_qHFjnYgQAYbkZ_yDw,Gangnam Style Restaurant Tampa,701 E Fletcher Ave,Tampa,FL,33612,28.0688201848,-82.4535314473,5.0,19,"Restaurants, Barbeque, Korean","{'Monday': '11:0-22:0', 'Wednesday': '11:0-22:0', 'Thursday': '11:0-22:0', 'Friday': '11:0-22:0', 'Saturday': '11:0-22:0', 'Sunday': '12:0-21:0'}"
56AIvAU0yxOfVKPGwONjuA,Kodawari Cafe,3965 S Henderson Blvd,Tampa,FL,33629,27.9313428,-82.5095353,4.0,8,"Juice Bars & Smoothies, Coffee & Tea, Cafes, Vegan, Food, Restaurants, Specialty Food, Pizza","{'Monday': '8:30-13:30', 'Tuesday': '8:30-13:30', 'Wednesday': '8:30-13:30', 'Thursday': '8:30-13:30', 'Friday': '14:0-18:0', 'Saturday': '8:30-13:30', 'Sunday': '9:30-12:30'}"
3Ub46ms25zibYYVg2rraqg,Lunas Mexican Restaurant,5924 Providence Rd,Brandon,FL,33511,27.8943479,-82.3184843,2.5,43,"Mexican, Restaurants",Hours not specified
Wq_1vdxlxFiZnU0-LmE4fQ,Little Greek,320 E Lake Rd,Palm Harbor,FL,34685,28.0612884452,-82.7094482767,4.0,91,"Greek, Restaurants","{'Monday': '11:0-21:0', 'Tuesday': '11:0-21:0', 'Wednesday': '11:0-21:0', 'Thursday': '11:0-21:0', 'Friday': '11:0-21:0', 'Saturday': '11:0-21:0', 'Sunday': '11:0-21:0'}"
LzFG7Altfy8O0tPFBqlcKw,Elote Stand,13410 Grand Prix Way,Tampa,FL,33612,28.068377551,-82.4430782333,4.5,7,"Food, Fruits & Veggies, Food Stands, Mexican, Specialty Food, Food Trucks, Restaurants",Hours not specified
UUDGbu6-nK97evc2LaevGQ,Casa Santo Stefano,1607 N 22nd St,Tampa,FL,33605,27.9592836,-82.4345863,4.0,206,"Sicilian, Restaurants, Italian","{'Monday': '11:0-22:0', 'Tuesday': '11:0-22:0', 'Wednesday': '11:0-22:0', 'Thursday': '11:0-22:0', 'Friday': '11:0-20:30', 'Saturday': '11:0-22:0', 'Sunday': '11:0-22:0'}"
1bwEz9wJwgfNFnBdW-rWkg,Lien Hoa Oriental Market,3692 W Waters Ave,Tampa,FL,33614,28.024818145,-82.5034525314,3.5,31,"Vietnamese, Home Services, Grocery, Restaurants, Real Estate, Food, Homeowner Association, International Grocery","{'Monday': '7:0-20:0', 'Tuesday': '7:0-20:0', 'Wednesday': '7:0-20:0', 'Thursday': '7:0-20:0', 'Friday': '7:0-20:0', 'Saturday': '7:0-20:0', 'Sunday': '6:30-19:30'}"
1ZW_rnoS2UBydTyc_0ikSQ,Sekushi,"2223 N Westshore Blvd, Unit B 213",Tampa,FL,33607,27.965654999999998,-82.521205,3.5,150,"Japanese, Restaurants, Sushi Bars, Ramen","{'Monday': '0:0-0:0', 'Tuesday': '11:0-18:0', 'Wednesday': '11:30-20:0', 'Thursday': '11:30-20:0', 'Friday': '11:30-21:0', 'Saturday': '11:30-21:0', 'Sunday': '11:30-20:0'}"
xOcgWO3xsyZxAPtLSkBz7g,Jet's Pizza,2045 Gulf To Bay Blvd,Clearwater,FL,33765,27.9600164,-82.7524342,3.0,37,"Restaurants, Food, Food Delivery Services, Sandwiches, Pizza, Salad, Italian","{'Monday': '0:0-0:0', 'Tuesday': '10:0-22:0', 'Wednesday': '10:0-22:0', 'Thursday': '10:0-22:0', 'Friday': '10:0-23:0', 'Saturday': '10:0-23:0', 'Sunday': '10:0-22:0'}"
QMNGweCNIS4kYrUrUCPsuA,New China,17625 Gunn Hwy,Odessa,FL,33556,28.1273,-82.574565,3.0,15,"Restaurants, Chinese","{'Monday': '11:0-22:0', 'Tuesday': '11:0-22:0', 'Wednesday': '11:0-22:0', 'Thursday': '11:0-22:0', 'Friday': '11:0-23:0', 'Saturday': '10:0-23:0', 'Sunday': '12:0-22:0'}"
_TKTiPOV97yJsRY40zI6xQ,China King,"4941 E Busch Blvd, Ste 120",Tampa,FL,33617,28.0320449,-82.4029366,4.5,23,"Chinese, Restaurants","{'Monday': '11:0-22:0', 'Tuesday': '11:0-22:0', 'Wednesday': '11:0-22:0', 'Thursday': '11:0-22:0', 'Friday': '11:0-23:0', 'Saturday': '11:0-23:0'}"
Wb9XhNUocfCsoMWIwjEcxQ,Wawa,1710 W Brandon Blvd,Brandon,FL,33510,27.9410506654,-82.3107151051,3.0,17,"Restaurants, Food, Gas Stations, Automotive, Sandwiches, Coffee & Tea","{'Monday': '0:0-0:0', 'Tuesday': '0:0-0:0', 'Wednesday': '0:0-0:0', 'Thursday': '0:0-0:0', 'Friday': '0:0-0:0', 'Saturday': '0:0-0:0', 'Sunday': '0:0-0:0'}"
w22wji2KXOCF1AS-E36P-A,Domani Bistro Lounge,6419 N Florida Ave,Tampa,FL,33604,28.0056945,-82.4594538,4.5,82,"Lounges, American (New), Restaurants, Bars, Italian, Nightlife","{'Monday': '16:0-23:0', 'Tuesday': '16:0-23:0', 'Wednesday': '16:0-23:0', 'Thursday': '16:0-23:0', 'Friday': '16:0-1:0', 'Saturday': '16:0-1:0', 'Sunday': '11:0-22:0'}"
oskXqC-K0AFLtgbTA4D3gQ,Sab Cafe,"111 2nd Ave NE, Ste 100",Saint Petersburg,FL,33701,27.7734044,-82.6342535,4.0,199,"Vietnamese, Cafes, Restaurants, Asian Fusion, Thai","{'Monday': '17:0-21:0', 'Wednesday': '17:0-21:0', 'Thursday': '17:0-21:0', 'Friday': '17:0-21:0', 'Saturday': '12:0-21:0', 'Sunday': '12:0-21:0'}"
RkfMpoCNqvgzjDNTTsL-5g,RaceTrac,2227 28th St N,Saint Petersburg,FL,33713,27.7922907,-82.6707485,4.0,7,"Food, Gas Stations, Automotive, Convenience Stores","{'Monday': '0:0-0:0', 'Tuesday': '0:0-0:0', 'Wednesday': '0:0-0:0', 'Thursday': '0:0-0:0', 'Friday': '0:0-0:0', 'Saturday': '0:0-0:0', 'Sunday': '0:0-0:0'}"
5m6gQ3BwWi8QXcZmD4yulg,Banh Mi Factory,15728 N Dale Mabry Hwy,Tampa,FL,33618,28.0960507,-82.5039453,4.5,59,"Bubble Tea, Bakeries, Sandwiches, Vietnamese, Restaurants, Food","{'Monday': '8:0-20:0', 'Tuesday': '8:0-20:0', 'Thursday': '8:0-20:0', 'Friday': '8:0-20:0', 'Saturday': '8:0-20:0', 'Sunday': '10:0-18:0'}"
GgcDDkFQuCU5puBqq0lImQ,Little Greek Restaurant,"10801 Starkey Rd, Ste 11",Largo,FL,33777,27.8718780509,-82.7601850553,3.5,81,"Restaurants, Greek","{'Monday': '11:0-21:0', 'Tuesday': '11:0-21:0', 'Wednesday': '11:0-21:0', 'Thursday': '11:0-21:0', 'Friday': '11:0-21:0', 'Saturday': '11:0-21:0', 'Sunday': '11:0-21:0'}"
9dL1rsPANYr-71hdwoY-CA,Desi Tadka Indian Cuisine,"3780 Tampa Rd, Ste D2",Oldsmar,FL,34677,28.042406,-82.677755,4.0,169,"Restaurants, Indian","{'Tuesday': '16:30-21:30', 'Wednesday': '16:30-21:30', 'Thursday': '16:30-21:30', 'Friday': '16:30-21:30', 'Saturday': '16:30-21:30', 'Sunday': '16:30-21:30'}"
OrBJqX-dG0oJfN1ppDtzGA,John Erb's Service Center,16133 N Dale Mabry Hwy,Tampa,FL,33618,28.099473,-82.5015429,3.5,14,"Auto Repair, Automotive, RV Repair, Truck Rental, Gas Stations",Hours not specified
VyVRY6yZ3qD2g-kSbqYerQ,Osaka Sushi & Thai,13800 Park Blvd,Seminole,FL,33776,27.8434789,-82.829476,3.5,162,"Sushi Bars, Restaurants","{'Monday': '17:0-22:0', 'Tuesday': '17:0-22:0', 'Wednesday': '17:0-22:0', 'Thursday': '17:0-22:0', 'Friday': '17:0-22:0', 'Saturday': '17:0-22:0', 'Sunday': '17:0-22:0'}"
JzUFlsQh5jWG0AHD0V8pIQ,Chubby's Super Subs & Pizza,5023 Bayshore Blvd,Tampa,FL,33611,27.8913753993,-82.4858343601,3.5,111,"Wine Bars, Pizza, Sandwiches, Nightlife, Italian, Bars, Restaurants","{'Monday': '10:30-21:0', 'Tuesday': '10:30-21:0', 'Wednesday': '10:30-21:0', 'Thursday': '10:30-21:0', 'Friday': '10:30-21:0', 'Saturday': '11:0-21:0', 'Sunday': '11:30-20:0'}"
8FRpZwJgsNhvn3r26cTXXQ,Tequila's Mexican Grill & Cantina,422 Cleveland St,Clearwater,FL,33755,27.9657903,-82.8003274,3.5,228,"Mexican, Restaurants, Nightlife, Tex-Mex, Seafood, Bars","{'Monday': '11:0-21:30', 'Tuesday': '11:0-21:30', 'Wednesday': '11:0-21:30', 'Thursday': '11:0-21:30', 'Friday': '11:0-22:30', 'Saturday': '11:0-22:30', 'Sunday': '11:0-21:0'}"
dfXEEXFlpHLLQV9sm-ISRg,Taco Bell,32899 US Highway 19 N,Palm Harbor,FL,34684,28.071059,-82.738858,3.5,16,"Restaurants, Tacos, Fast Food, Breakfast & Brunch, Mexican, Tex-Mex","{'Monday': '8:0-23:0', 'Tuesday': '8:0-23:0', 'Wednesday': '8:0-23:0', 'Thursday': '8:0-23:30', 'Friday': '8:0-23:30', 'Saturday': '8:0-23:30', 'Sunday': '8:0-23:0'}"
HfJeU5-MzRGiO3nIJwnEqQ,Thai Sweet Basil,3875 Northdale Blvd,Tampa,FL,33624,28.094253,-82.505438,4.0,202,"Restaurants, Thai","{'Monday': '16:0-21:30', 'Tuesday': '16:0-21:30', 'Wednesday': '16:0-21:30', 'Thursday': '16:0-21:30', 'Friday': '16:0-21:30', 'Saturday': '16:0-21:30', 'Sunday': '15:0-20:30'}"
XR4xaRIXWeLyAsPzRyOj_A,Pizza Hut,13789 Walsingham Rd,Largo,FL,33774,27.8808178218,-82.8293242259,2.5,14,"Restaurants, Pizza, Chicken Wings, Italian, Fast Food","{'Monday': '12:0-20:0', 'Tuesday': '12:0-20:0', 'Wednesday': '12:0-20:0', 'Thursday': '12:0-20:0', 'Friday': '12:0-20:0', 'Saturday': '12:0-20:0', 'Sunday': '12:0-20:0'}"
XbLXmPpikzyij7Z_K7RNEw,Zapata's Mexican Bar & Grill,3970 Tampa Rd,Oldsmar,FL,34677,28.0364465,-82.6594418,3.5,94,"Bars, Mexican, Restaurants, Nightlife","{'Monday': '11:0-22:0', 'Tuesday': '11:0-22:0', 'Wednesday': '11:0-22:0', 'Thursday': '11:0-22:0', 'Friday': '11:0-22:0', 'Saturday': '12:0-22:0', 'Sunday': '12:0-21:0'}"
aiD1s5zPzi4nPZXaEa2mTw,Mi Bandera,7748 W Hillsborough Ave,Tampa,FL,33615,27.9960638,-82.5681599,4.0,63,"Latin American, American (New), Restaurants, Bars, Colombian, Nightlife","{'Monday': '10:0-20:30', 'Tuesday': '10:0-20:30', 'Wednesday': '10:0-20:30', 'Thursday': '10:0-20:30', 'Friday': '10:0-21:30', 'Saturday': '10:0-21:30', 'Sunday': '10:0-21:30'}"
mDTJ6OVTQhBk6b_wK32YfA,Taco Bus,505 S Gulfview Blvd,Clearwater,FL,33767,27.9682448516,-82.8284020112,4.0,168,"Restaurants, Tacos, Vegan, Mexican, Food, Empanadas, Vegetarian, Desserts, Food Trucks","{'Monday': '0:0-0:0', 'Tuesday': '10:0-0:0', 'Wednesday': '10:0-0:0', 'Thursday': '10:0-0:0', 'Friday': '10:0-1:0', 'Saturday': '10:0-1:0', 'Sunday': '10:0-0:0'}"
Kfd5R_3t4LI4el1D9YhkQw,Chopstix Chinese restaurant,11068 Spring Hill Dr,Spring Hill,FL,34608,28.460131,-82.541607,2.5,14,"Chinese, Restaurants","{'Monday': '11:0-22:0', 'Wednesday': '11:0-22:0', 'Thursday': '11:0-22:0', 'Friday': '11:0-22:0', 'Saturday': '11:0-22:0', 'Sunday': '12:0-22:0'}"
bnX0V6v2Iy6j-Py8uyMaxQ,Cristino's Coal Oven Pizza & Restaurant,1701 E 8th Ave,Tampa,FL,33605,27.9609642,-82.4404634,4.0,111,"Pizza, Italian, Restaurants, Food, Gelato","{'Monday': '11:0-22:0', 'Tuesday': '11:0-22:0', 'Wednesday': '11:0-22:0', 'Thursday': '11:0-22:0', 'Friday': '11:0-23:0', 'Saturday': '11:0-23:0', 'Sunday': '11:0-22:0'}"
-oLUNNkVi0Wdikuc4LlQ_Q,Sabor Paisa Restaurant,7006 Hanley Rd,Tampa,FL,33634,28.014026,-82.562889,4.0,15,"Colombian, Latin American, Spanish, Restaurants","{'Tuesday': '8:0-20:0', 'Wednesday': '8:0-20:0', 'Thursday': '8:0-20:0', 'Friday': '8:0-21:0', 'Saturday': '8:0-21:0', 'Sunday': '8:0-20:0'}"
pXxYdmtrWY_gl7ezGFyM_g,Estela's,4015 S Dale Mabry Hwy,Tampa,FL,33611,27.9058005,-82.5065522,2.0,27,"Mexican, Restaurants","{'Monday': '11:0-22:0', 'Tuesday': '11:0-22:0', 'Wednesday': '11:0-22:0', 'Thursday': '11:0-23:0', 'Friday': '11:0-23:0', 'Saturday': '11:0-23:0', 'Sunday': '11:0-22:0'}"
mAhrJgrj5ydEl4FK5yqJeg,Istanblu Restaurant & Grill,1919 E 7th Ave,Tampa,FL,33605,27.96004,-82.437226,3.5,83,"Greek, Middle Eastern, Bars, Nightlife, Restaurants, Turkish, Mediterranean","{'Monday': '11:0-22:0', 'Tuesday': '11:0-22:0', 'Wednesday': '11:0-22:0', 'Thursday': '11:0-22:0', 'Friday': '11:0-22:0', 'Saturday': '11:0-23:30', 'Sunday': '11:30-21:0'}"
jmVzj4uGQqX4lDusUzmDLQ,Ippolito Italian Deli,"14100 Walsingham Rd, Ste 10",Largo,FL,33774,27.8798836,-82.8342737,4.5,65,"Delis, Bakeries, Italian, Food, Desserts, Restaurants","{'Monday': '9:0-18:0', 'Tuesday': '9:0-18:0', 'Wednesday': '9:0-18:0', 'Thursday': '9:0-18:0', 'Friday': '9:0-18:0', 'Saturday': '9:0-17:0', 'Sunday': '9:0-14:0'}"
_6BPCsncWRTAXs-8B5PAow,Panda Express,501 Brandon Town Center Dr,Brandon,FL,33511,27.928168,-82.325617,2.5,7,"Fast Food, Chinese, Restaurants","{'Monday': '10:0-21:30', 'Tuesday': '10:0-21:30', 'Wednesday': '10:0-21:30', 'Thursday': '10:0-21:30', 'Friday': '10:0-21:30', 'Saturday': '10:0-21:30', 'Sunday': '10:0-21:30'}"
0XKSJa0Iy2Rkd65sCvqgmQ,Moe's Southwest Grill,3810 W Neptune St,Tampa,FL,33629,27.9298955683,-82.5068108068,2.5,48,"Restaurants, Tex-Mex, Mexican","{'Monday': '10:0-22:0', 'Tuesday': '10:0-22:0', 'Wednesday': '10:0-22:0', 'Thursday': '10:0-22:0', 'Friday': '10:0-22:0', 'Saturday': '10:0-22:0', 'Sunday': '11:0-21:0'}"
Qk5HvQpVC17MaLlVIiThhw,Origami Sushi,3615 W Hillsborough Ave,Tampa,FL,33614,27.9973754406,-82.5021981229,4.0,164,"Japanese, Sushi Bars, Restaurants","{'Monday': '11:0-21:30', 'Tuesday': '11:0-21:30', 'Wednesday': '11:0-21:30', 'Thursday': '11:0-21:30', 'Friday': '11:0-21:30', 'Saturday': '12:0-21:30', 'Sunday': '12:0-21:30'}"
zEun4V7It5MWTIvqZmIlpA,DeVito's Italian Specialties,"200 N Tampa St, Ste G 115",Tampa,FL,33602,27.946263,-82.4584168,4.0,64,"Italian, Restaurants","{'Tuesday': '17:0-21:0', 'Wednesday': '17:0-21:0', 'Thursday': '17:0-21:0', 'Friday': '17:0-22:0', 'Saturday': '17:0-22:0'}"
2LK3DWkmzZRVK6M2YnWECw,Tony's Ybor Restaurant,2001 N 22nd St,Tampa,FL,33605,27.9618164,-82.4345424,4.0,20,"Restaurants, American (Traditional), Italian, American (New), Breakfast & Brunch","{'Monday': '7:30-14:30', 'Tuesday': '7:30-14:30', 'Wednesday': '7:30-14:30', 'Thursday': '7:30-14:30', 'Friday': '7:30-14:30'}"
gRwkeTUN7hTa7GnSNjvOAQ,Ciccio's Lodge,16023 Tampa Palms Blvd,Tampa,FL,33647,28.0981045,-82.3989606,4.0,10,"American (New), Italian, Restaurants",Hours not specified
3tMMCXrwxxkd-DNsCPekJw,Taco Bell,10749 Park Blvd,Seminole,FL,33772,27.8399702512,-82.7889196202,3.0,29,"Mexican, Fast Food, Tacos, Restaurants, Breakfast & Brunch, Tex-Mex","{'Monday': '7:0-2:0', 'Tuesday': '7:0-2:0', 'Wednesday': '7:0-2:0', 'Thursday': '7:0-2:0', 'Friday': '7:0-2:0', 'Saturday': '7:0-2:0', 'Sunday': '7:0-2:0'}"
YgppXEDVZvx9i02ExwN48Q,Pieology Pizzeria,11165 Park Blvd N,Seminole,FL,33772,27.84103943,-82.79376172,4.0,102,"Vegan, Fast Food, Restaurants, Pizza, Gluten-Free","{'Monday': '0:0-0:0', 'Tuesday': '11:0-21:0', 'Wednesday': '11:0-21:0', 'Thursday': '11:0-21:0', 'Friday': '11:0-22:0', 'Saturday': '11:0-22:0', 'Sunday': '11:0-21:0'}"
ftS0l_1zsGIClcauh1RYww,Elsa's Mexican Restaurant,18450 US Hwy 41,Lutz,FL,33549,28.141544,-82.46387,3.0,79,"Nightlife, Sports Bars, Mexican, Restaurants, Bars","{'Monday': '11:0-23:0', 'Tuesday': '11:0-23:0', 'Wednesday': '11:0-23:0', 'Thursday': '11:0-23:0', 'Friday': '11:0-23:0', 'Saturday': '11:0-23:0', 'Sunday': '11:0-22:0'}"
CB1yizxEQtIdLzDzp3zZuw,Tampa Greek Festival,2418 W Swann Ave,Tampa,FL,33609,27.9367992,-82.4845782,4.5,14,"Local Flavor, Religious Organizations, Greek, Arts & Entertainment, Cultural Center, Festivals, Restaurants, Churches, Food Stands","{'Friday': '11:0-23:0', 'Saturday': '11:0-23:0', 'Sunday': '11:0-18:0'}"
VQiRR0rLH16C_ldAgqDIzw,Chipotle Mexican Grill,25442 Sierra Center Blvd,Lutz,FL,33559,28.1929784347,-82.3951593,2.0,62,"Mexican, Restaurants, Fast Food","{'Monday': '0:0-0:0', 'Tuesday': '10:45-22:0', 'Wednesday': '10:45-22:0', 'Thursday': '10:45-22:0', 'Friday': '10:45-22:0', 'Saturday': '10:45-22:0', 'Sunday': '10:45-22:0'}"
I-_INTauk4ua69LcBCWk8A,Taco Bell,9211 4th St North,Saint Petersburg,FL,33702,27.856127,-82.638667,2.0,26,"Food, Breakfast & Brunch, Tex-Mex, Restaurants, Mexican, Tacos, Fast Food","{'Monday': '7:0-2:0', 'Tuesday': '7:0-2:0', 'Wednesday': '7:0-2:0', 'Thursday': '7:0-2:0', 'Friday': '7:0-3:0', 'Saturday': '7:0-3:0', 'Sunday': '7:0-2:0'}"
Cf-iBremIwEQcidgVlMdrA,El Diamante Restaurante,4422 N Hubert Ave,Tampa,FL,33614,27.98368,-82.51604,4.5,7,"Mexican, Restaurants","{'Monday': '11:0-22:0', 'Tuesday': '11:0-21:0', 'Wednesday': '11:0-21:0', 'Thursday': '11:0-21:0', 'Friday': '11:0-22:0', 'Saturday': '11:0-22:0', 'Sunday': '11:0-22:0'}"
LosVSCbRogDA8xSRSMrfNw,China Express,919 Lithia Pinecrest Rd,Brandon,FL,33511,27.924556,-82.269588,3.5,49,"Food, Chinese, Restaurants, Food Delivery Services, Szechuan","{'Tuesday': '11:0-21:45', 'Wednesday': '11:0-21:45', 'Thursday': '11:0-21:45', 'Friday': '11:0-22:45', 'Saturday': '11:0-22:45', 'Sunday': '12:0-21:45'}"
otJAPyE7thHcLuFCM8Wtvw,Tazza Turkish and Mediterranean Grill,"5001 E Fowler Ave, Ste D",Tampa,FL,33617,28.0536543377,-82.4012975454,4.5,255,"American (New), Cafes, Kebab, Turkish, Fast Food, Restaurants, Mediterranean, Burgers, Halal, American (Traditional), Middle Eastern","{'Monday': '11:0-22:0', 'Tuesday': '11:0-22:0', 'Wednesday': '11:0-22:0', 'Thursday': '11:0-22:0', 'Friday': '11:0-23:0', 'Saturday': '11:0-23:0', 'Sunday': '11:0-22:0'}"
Az4V0S5GdA0n24l53Rw7Ig,Wawa,132 Welsh Rd,Horsham,FL,19044,40.1601674816,-75.1473540599,4.5,5,"Food, Restaurants, Sandwiches, Fast Food, Coffee & Tea, Breakfast & Brunch, Automotive, Gas Stations","{'Monday': '0:0-0:0', 'Tuesday': '0:0-0:0', 'Wednesday': '0:0-0:0', 'Thursday': '0:0-0:0', 'Friday': '0:0-0:0', 'Saturday': '0:0-0:0', 'Sunday': '0:0-0:0'}"
p1jcbRzdFME-3gM27eLtag,Soul Food Street Kitchen,6905 N Orleans Ave,Tampa,FL,33604,28.0110316,-82.4730962,4.5,30,"Food, American (Traditional), Event Planning & Services, Caterers, Food Trucks, Soul Food, Greek, Restaurants",Hours not specified
pjH0S-oIJ_vNcWaTiwy43w,Tijuana Flats,180 S Belcher Rd,Largo,FL,33771,27.9149144104,-82.7463801205,4.5,16,"Tex-Mex, Restaurants, Tacos, Mexican","{'Monday': '11:0-22:0', 'Tuesday': '11:0-22:0', 'Wednesday': '11:0-22:0', 'Thursday': '11:0-22:0', 'Friday': '11:0-22:0', 'Saturday': '11:0-22:0', 'Sunday': '11:0-21:0'}"
uiptTJHbqohOvCbKGJL2-Q,La Fiebre Del Sabor Criollo,6311 E Hillsborough,Tampa,FL,33610,27.99569,-82.383316,4.5,26,"Restaurants, Latin American, Puerto Rican, Food, Caribbean, Food Trucks","{'Wednesday': '11:0-16:0', 'Thursday': '11:0-16:0', 'Friday': '12:0-22:0', 'Saturday': '12:0-22:0', 'Sunday': '12:0-22:0'}"
XFnk08HsHndGzWJZkZ9jKw,Peking,6936 N 56th St,Tampa,FL,33617,28.0119072,-82.3939577,4.0,11,"American (New), Restaurants, Chinese",Hours not specified
SsLWTTIeBgYqzinREkuzrQ,Harborita Cantina,519 2nd St S,Safety Harbor,FL,34695,27.990211,-82.692724,2.5,52,"Arts & Entertainment, Bars, Nightlife, Mexican, Restaurants, Music Venues","{'Monday': '11:30-21:0', 'Tuesday': '11:30-21:0', 'Wednesday': '11:30-21:0', 'Thursday': '11:30-21:0', 'Friday': '11:30-23:0', 'Saturday': '11:30-23:0', 'Sunday': '11:30-21:0'}"
VefZOP19DFXVeRK7Td01zA,The Taco Traveler,,Tampa,FL,33601,27.9401015,-82.4501944,5.0,7,"Food Trucks, Restaurants, Tacos, Food, Mexican",Hours not specified
B_OAEce_0rEn6rPpwtQu9w,Corteo's Italian Restaurant & Pizzeria,32922 US 19 N,Palm Harbor,FL,34683,28.070844,-82.739925,4.5,11,"Italian, Restaurants",Hours not specified
rtARLjaKNMjuvgokckJoHQ,Mandy's Restaurant,"4025 W Waters Ave, Ste 101",Tampa,FL,33614,28.0258138,-82.5113635522,4.5,26,"Sandwiches, Restaurants, Cuban, Mexican","{'Monday': '9:0-19:0', 'Tuesday': '9:0-19:0', 'Wednesday': '9:0-19:0', 'Thursday': '9:0-19:0', 'Friday': '9:0-19:0', 'Saturday': '9:0-17:0'}"
FboNTDVK03ytZFOHl8VPyA,Grass Root,4334 S Manhattan Ave,Tampa,FL,33611,27.9020003,-82.5184251,3.5,25,"Vegan, Restaurants, Live/Raw Food, Food, Vegetarian, Juice Bars & Smoothies","{'Tuesday': '11:0-21:0', 'Wednesday': '11:0-21:0', 'Thursday': '11:0-21:0', 'Friday': '11:0-21:0', 'Saturday': '11:0-21:0'}"
OcfgkpA2jLI5EHqnbEmPBA,Got Sushi?,1136 94th Ave N St,Saint Petersburg,FL,33702,27.856991999999998,-82.649519,4.0,69,"Steakhouses, Sushi Bars, Restaurants, Japanese","{'Tuesday': '17:0-22:0', 'Wednesday': '17:0-22:0', 'Thursday': '17:0-22:0', 'Friday': '17:0-23:0', 'Saturday': '16:0-23:0', 'Sunday': '16:0-22:0'}"
T4xxJOwAEzwMupvvf1QduQ,Capital Tacos,5226 4th St N,Saint Petersburg,FL,33703,27.8195787,-82.6390403,4.0,244,"Mexican, New Mexican Cuisine, Tex-Mex, Tacos, Restaurants",Hours not specified
y9kq3hCzoySI9TzIS4yb7w,"Frammi, American Grille & Italian Food","17631 Bruce B Downs Blvd, Ste E",Tampa,FL,33647,28.130294,-82.3649817,4.0,316,"Restaurants, Salad, Sandwiches, Burgers, Italian, American (Traditional)","{'Monday': '0:0-0:0', 'Tuesday': '11:0-20:0', 'Wednesday': '11:0-20:0', 'Thursday': '11:0-20:0', 'Friday': '11:0-21:0', 'Saturday': '11:0-21:0', 'Sunday': '12:0-20:0'}"
yy-9ykDN9Tvq3FRRiwdtpg,Pita's Republic,"1600 E 8th Ave, Ste 108",Tampa,FL,33605,27.960797,-82.4415994,3.5,6,"Mediterranean, Sandwiches, Restaurants, Greek","{'Monday': '11:0-21:0', 'Tuesday': '11:0-21:0', 'Wednesday': '10:0-21:0', 'Thursday': '11:0-21:0', 'Friday': '11:0-21:0', 'Saturday': '11:0-21:0', 'Sunday': '11:0-19:0'}"
RLRTakpA-jtBsurYHjZRRQ,Trang Viet Cuisine,230 E Bearss Ave,Tampa,FL,33613,28.0894957,-82.4584569,4.0,213,"Restaurants, Vietnamese, Vegan","{'Monday': '12:0-19:0', 'Tuesday': '12:0-19:0', 'Wednesday': '12:0-19:0', 'Thursday': '12:0-19:0', 'Friday': '12:0-19:0', 'Saturday': '12:0-19:0'}"
_j1zgmDh2ha7FA--FztZtA,Italiasia,4500 W Cypress St,Tampa,FL,33607,27.951473,-82.5215105,2.5,13,"Italian, Asian Fusion, Restaurants","{'Monday': '6:30-22:0', 'Tuesday': '6:30-22:0', 'Wednesday': '6:30-22:0', 'Thursday': '6:30-22:0', 'Friday': '6:30-22:0', 'Saturday': '7:0-22:0', 'Sunday': '7:0-22:0'}"
jaUJqqNpGKx24GTtdxDCcQ,Wakamole Truly Mexican,23197 US Hwy 19 N,Clearwater,FL,33765,27.9835808,-82.7290453,4.5,24,"Food, Street Vendors, Food Trucks, Food Delivery Services, Caterers, Mexican, Event Planning & Services, Restaurants, Party & Event Planning","{'Tuesday': '17:30-20:30', 'Wednesday': '17:30-20:30', 'Thursday': '17:30-20:30', 'Friday': '17:30-20:30', 'Saturday': '11:0-18:0'}"
TqztcztbTJVaUj_3XLjFdg,Trattoria168,2701 E Folwer Ave,Tampa,FL,33612,28.0538341,-82.4293065,3.5,6,"American (Traditional), Pizza, Restaurants, Italian","{'Monday': '11:0-22:0', 'Tuesday': '11:0-22:0', 'Wednesday': '11:0-22:0', 'Thursday': '11:0-22:0', 'Friday': '11:0-23:0', 'Saturday': '11:0-23:0', 'Sunday': '11:0-22:0'}"
7Hpb9zYXOyTuFpxQksdqfA,Duckweed Urban Grocery,117 N 12th St,Tampa,FL,33602,27.948388,-82.446394,3.5,27,"Specialty Food, Health Markets, Beer, Wine & Spirits, Food, Grocery, Bakeries, Vegan, Restaurants","{'Monday': '8:0-23:0', 'Tuesday': '8:0-23:0', 'Wednesday': '8:0-23:0', 'Thursday': '8:0-23:0', 'Friday': '8:0-0:0', 'Saturday': '8:0-0:0', 'Sunday': '8:0-23:0'}"
zC7xWf8CTkYtDbwQHFetNg,Mariscos El Pulpo Restaurant,8740 Seminole Blvd,Seminole,FL,33772,27.8520765,-82.7876969,3.5,62,"Restaurants, Mexican",Hours not specified
ZOTHFfEDQl-0y7zWoWGvKw,New Beijing,17677 N Dale Mabry Hwy,Lutz,FL,33548,28.1229507,-82.5023195,3.5,43,"Restaurants, Chinese","{'Tuesday': '11:0-21:30', 'Wednesday': '11:0-21:30', 'Thursday': '11:0-21:30', 'Friday': '11:0-22:0', 'Saturday': '12:0-22:0', 'Sunday': '12:0-21:0'}"
n9ekDu7UHi1uSV9q3c-vAg,J & Z China Buffet,4241 Mariner Blvd,Spring Hill,FL,34609,28.4932239,-82.5421131,3.5,8,"Restaurants, Chinese",Hours not specified
oa2o1uiNCozsYIsbgw76Fw,Palma Ceia Village Health Market,"3225 S Macdill Ave, Ste 123",Tampa,FL,33629,27.916039,-82.494609,4.5,52,"Vegetarian, Juice Bars & Smoothies, Food, Shopping, Restaurants, Vitamins & Supplements, Specialty Food","{'Monday': '8:0-20:0', 'Tuesday': '8:0-20:0', 'Wednesday': '8:0-20:0', 'Thursday': '8:0-20:0', 'Friday': '8:0-20:0', 'Saturday': '8:0-20:0', 'Sunday': '10:0-19:0'}"
rkUEoEMEp7SHarx0OkXuLw,Ns Food and Gifts,"5522 Hanley Rd, Ste 105",Tampa,FL,33634,27.9992831,-82.5634321,3.5,7,"International Grocery, Indian, Restaurants, Food",Hours not specified
FTnY5qY1ftgODV0gGYbI6w,Tampa Pizza Company,777 N Ashley Dr,Tampa,FL,33602,27.9497748753,-82.4600632251,4.0,289,"Pizza, Restaurants, Vegetarian, Gluten-Free","{'Monday': '11:0-21:30', 'Tuesday': '11:0-21:30', 'Wednesday': '11:0-21:30', 'Thursday': '11:0-21:30', 'Friday': '11:0-23:30', 'Saturday': '11:0-23:30', 'Sunday': '11:0-21:30'}"
pi1CtS1L_Rd1NcmO-un1cQ,Fresh Kitchen,1350 S Howard Ave,Tampa,FL,33606,27.9292045,-82.4830593,4.5,663,"Gluten-Free, American (New), Food, Restaurants, Vegetarian, Juice Bars & Smoothies","{'Monday': '0:0-0:0', 'Tuesday': '11:0-21:30', 'Wednesday': '11:0-21:30', 'Thursday': '11:0-21:30', 'Friday': '11:0-16:0', 'Saturday': '11:0-21:30', 'Sunday': '11:0-16:0'}"
enCe1a4qw9OipQhrBz5gHQ,Sabai Asian Bistro,"2454 McMullen Booth Rd, Ste 205",Clearwater,FL,33759,28.0121020695,-82.705253039,4.5,46,"Restaurants, Asian Fusion, Sushi Bars, Thai","{'Monday': '16:30-21:0', 'Tuesday': '16:30-21:0', 'Wednesday': '16:30-21:0', 'Thursday': '16:30-21:0', 'Friday': '16:30-22:0', 'Saturday': '16:0-22:0'}"
o-4zpXQDCxCgE7F3fWFZNg,No1 Wok Chinese Restaurant,36115 E Lake Rd,Palm Harbor,FL,34685,28.1009513,-82.6926183,3.0,5,"Chinese, Restaurants",Hours not specified
